[
  {
    "headName": "Ashley Ñaupa",
    "phone": "967729255",
    "dni": "No brinda",
    "address": "Asentamiento las terrazas mz.d lte. 4",
    "sector": "Jose Galvez",
    "id": "33",
    "promoter": "Adela Silva Vega",
    "lat": "-12.210441",
    "lng": "-76.9154",
    "photo": "https://kc.kobotoolbox.org/media/original?media_file=alvaro_escuelar%2Fattachments%2Fb489648379a248ae9a50b5b25f15d5ca%2F79c88c5b-2337-42f2-9a34-b479631469f4%2FIMG_20250413_120403-12_8_10.jpg"
  },
  {
    "headName": "Eugenia Valenzuela Roman",
    "phone": "933485495",
    "dni": "10528900",
    "address": "Mz C lt 5 - AAHH Amistad 8 de Octubre",
    "sector": "Tablada de Lurín",
    "id": "132",
    "promoter": "Rossana Elena Marchinares Rojas",
    "lat": "-12.179036",
    "lng": "-76.928893",
    "photo": "https://kc.kobotoolbox.org/media/original?media_file=alvaro_escuelar%2Fattachments%2Fb489648379a248ae9a50b5b25f15d5ca%2F9052ba30-98aa-4647-bf9c-049fd21db288%2F1000125118-20_46_17.jpg"
  },
  {
    "headName": "Guisepi Isidro brandan",
    "phone": "984917985",
    "dni": "42422389",
    "address": "mz I lt 7 - AAHH Amistad 8 de Octubre",
    "sector": "Tablada de Lurín",
    "id": "156",
    "promoter": "Fari Eli Marín Trejo",
    "lat": "-12.17868",
    "lng": "-76.929649",
    "photo": "https://kc.kobotoolbox.org/media/original?media_file=alvaro_escuelar%2Fattachments%2Fb489648379a248ae9a50b5b25f15d5ca%2F84b09a96-c548-4532-9d7c-7411a4d7115b%2F1000126766-17_4_52.jpg"
  },
  {
    "headName": "Vicenta chagua nina",
    "phone": "994441825",
    "dni": "9300487",
    "address": "MZ G lt 6 - AAHH Amistad 8 de Octubre",
    "sector": "Tablada de Lurín",
    "id": "158",
    "promoter": "Fari Eli Marín Trejo",
    "lat": "-12.178742",
    "lng": "-76.929857",
    "photo": "https://kc.kobotoolbox.org/media/original?media_file=alvaro_escuelar%2Fattachments%2Fb489648379a248ae9a50b5b25f15d5ca%2Fd733b1af-4eae-488b-90ea-2ee403d41fde%2F1000126768-17_13_19.jpg"
  },
  {
    "headName": "Wendy montes cardenas",
    "phone": "904043375",
    "dni": "89609908",
    "address": "Mz H lt3 - A.H Amistad 8 de Octubre",
    "sector": "Tablada de Lurín",
    "id": "165",
    "promoter": "Fari Eli Marín Trejo",
    "lat": "-12.178588",
    "lng": "-76.929653",
    "photo": "https://kc.kobotoolbox.org/media/original?media_file=alvaro_escuelar%2Fattachments%2Fb489648379a248ae9a50b5b25f15d5ca%2Fe2437942-9b9a-4adc-a6d2-64ae23831fb6%2F1000126790-17_44_0.jpg"
  },
  {
    "headName": "Maribel Portugal falcon",
    "phone": "978963868",
    "dni": "8889285",
    "address": "mz I lt6 - AAHH Amistad 8 de Octubre",
    "sector": "Tablada de Lurín",
    "id": "166",
    "promoter": "Fari Eli Marín Trejo",
    "lat": "-12.178599",
    "lng": "-76.929658",
    "photo": "https://kc.kobotoolbox.org/media/original?media_file=alvaro_escuelar%2Fattachments%2Fb489648379a248ae9a50b5b25f15d5ca%2Fe7f87279-2986-49f6-bc5a-4cae3f880690%2F1000126789-17_47_33.jpg"
  },
  {
    "headName": "Tony turco portugal",
    "phone": "918451741",
    "dni": "70903261",
    "address": "mz I lt 6 - AAHH Amistad 8 de Octubre",
    "sector": "Tablada de Lurín",
    "id": "167",
    "promoter": "Fari Eli Marín Trejo",
    "lat": "-12.178659",
    "lng": "-76.929631",
    "photo": "https://kc.kobotoolbox.org/media/original?media_file=alvaro_escuelar%2Fattachments%2Fb489648379a248ae9a50b5b25f15d5ca%2F9cde6ba5-5f08-4156-821d-59a32713896a%2F1000126789-17_51_20.jpg"
  },
  {
    "headName": "Esthefany machuca zurita",
    "phone": "931085756",
    "dni": "48521394",
    "address": "mz C lt 14 B - AAHH Amistad 8 de Octubre",
    "sector": "Tablada de Lurín",
    "id": "174",
    "promoter": "Fari Eli Marín Trejo",
    "lat": "-12.179407",
    "lng": "-76.929248",
    "photo": "https://kc.kobotoolbox.org/media/original?media_file=alvaro_escuelar%2Fattachments%2Fb489648379a248ae9a50b5b25f15d5ca%2F768620e3-d04f-4d05-a175-62c94d9c25a0%2F1000126820-18_28_20.jpg"
  },
  {
    "headName": "Rosario narvaez vera",
    "phone": "986903269",
    "dni": "46623929",
    "address": "mz C lt 15 - AAHH Amistad 8 de Octubre",
    "sector": "Tablada de Lurín",
    "id": "177",
    "promoter": "Fari Eli Marín Trejo",
    "lat": "-12.179411",
    "lng": "-76.929248",
    "photo": "https://kc.kobotoolbox.org/media/original?media_file=alvaro_escuelar%2Fattachments%2Fb489648379a248ae9a50b5b25f15d5ca%2F88bee251-fb42-4118-96dd-8cb96515bfea%2F1000126819-18_37_35.jpg"
  },
  {
    "headName": "Guillermo Ríos Gutiérrez",
    "phone": "944067020",
    "dni": "9126277",
    "address": "MZ A lt 9a - AAHH Amistad 8 de Octubre",
    "sector": "Tablada de Lurín",
    "id": "204",
    "promoter": "Fari Eli Marín Trejo",
    "lat": "-12.17938",
    "lng": "-76.928529",
    "photo": "https://kc.kobotoolbox.org/media/original?media_file=alvaro_escuelar%2Fattachments%2Fb489648379a248ae9a50b5b25f15d5ca%2F71cf75b5-658e-442b-8b53-dc2e5404117f%2F1000127349-12_42_27.jpg"
  },
  {
    "headName": "Rossemary Masedo Oliveira",
    "phone": "934 818 398",
    "dni": "70922010",
    "address": "Calle Hernandez Mzc Lote 2",
    "sector": "Jose Galvez",
    "id": "306",
    "promoter": "Adela Silva Vega",
    "lat": "-12.223653",
    "lng": "-76.902455",
    "photo": "https://kc.kobotoolbox.org/media/original?media_file=alvaro_escuelar%2Fattachments%2Fb489648379a248ae9a50b5b25f15d5ca%2Fdf9ff330-4162-46ca-a661-13d2a9eb2ecc%2FIMG_20250424_173325-17_34_6.jpg"
  },
  {
    "headName": "Rodario reyna",
    "phone": "980824413",
    "dni": "7892737",
    "address": "Calle Hernandez #143 condominio santa lucia",
    "sector": "Jose Galvez",
    "id": "307",
    "promoter": "Sin asignar",
    "lat": "-12.223627",
    "lng": "-76.902463",
    "photo": "https://kc.kobotoolbox.org/media/original?media_file=alvaro_escuelar%2Fattachments%2Fb489648379a248ae9a50b5b25f15d5ca%2F01b93e45-62bd-4117-86bb-f460edcd8c11%2FIMG_20250424_173253-17_33_54.jpg"
  },
  {
    "headName": "Anggie maslucan rubio",
    "phone": "989161345",
    "dni": "75351868",
    "address": "Mz f lt 1 pasaje san pedro - Inmaculada Concepción Sector San Pedro",
    "sector": "Jose Galvez",
    "id": "309",
    "promoter": "Sin asignar",
    "lat": "-12.222732",
    "lng": "-76.901925",
    "photo": "https://kc.kobotoolbox.org/media/original?media_file=alvaro_escuelar%2Fattachments%2Fb489648379a248ae9a50b5b25f15d5ca%2F7a9e8f35-8a2d-47b3-ba48-4971e2b06142%2FIMG_20250424_174951-17_50_11.jpg"
  },
  {
    "headName": "Melquiades Ayala",
    "phone": "987 641 581",
    "dni": "No brinda",
    "address": "Sector primero de julio Mz a lote 1",
    "sector": "Jose Galvez",
    "id": "314",
    "promoter": "Adela Silva Vega",
    "lat": "-12.222017",
    "lng": "-76.902647",
    "photo": "https://kc.kobotoolbox.org/media/original?media_file=alvaro_escuelar%2Fattachments%2Fb489648379a248ae9a50b5b25f15d5ca%2F0aa1e3b4-8b1c-4949-842e-dda7c52b7b81%2FIMG_20250424_182628-18_26_58.jpg"
  },
  {
    "headName": "Rojas Puliwaman Cleotilde",
    "phone": "964552929",
    "dni": "8231930",
    "address": "Comité cien Mzd 162 lote 143",
    "sector": "Jose Galvez",
    "id": "317",
    "promoter": "Adela Silva Vega",
    "lat": "-12.221456",
    "lng": "-76.903696",
    "photo": ""
  },
  {
    "headName": "Marrz quispe",
    "phone": "974226573",
    "dni": "47006017",
    "address": "AAHH 10 de octubre Mz B Lt 104",
    "sector": "Jose Galvez",
    "id": "322",
    "promoter": "Sin asignar",
    "lat": "-12.221406",
    "lng": "-76.903828",
    "photo": "https://kc.kobotoolbox.org/media/original?media_file=alvaro_escuelar%2Fattachments%2Fb489648379a248ae9a50b5b25f15d5ca%2Fb1d24b22-daa4-470d-a344-eb4813284865%2FIMG_20250424_192801-19_29_28.jpg"
  },
  {
    "headName": "Carlos Casaverde",
    "phone": "999710502",
    "dni": "No brinda",
    "address": "Jirón ferrocarril 1733",
    "sector": "Jose Galvez",
    "id": "323",
    "promoter": "Adela Silva Vega",
    "lat": "-12.220837",
    "lng": "-76.903757",
    "photo": ""
  },
  {
    "headName": "Ronald sanchez",
    "phone": "958971743",
    "dni": "No brinda",
    "address": "Comite 100 MZ 162 Lt 21",
    "sector": "Jose Galvez",
    "id": "324",
    "promoter": "Sin asignar",
    "lat": "-12.220937",
    "lng": "-76.903704",
    "photo": "https://kc.kobotoolbox.org/media/original?media_file=alvaro_escuelar%2Fattachments%2Fb489648379a248ae9a50b5b25f15d5ca%2F98941573-6736-4a7f-b8f8-700bbfd99761%2FIMG_20250424_193359-19_39_10.jpg"
  },
  {
    "headName": "Milagros roca",
    "phone": "902864297",
    "dni": "456066",
    "address": "Av miguel grau 1635 - Villa Poeta",
    "sector": "Jose Galvez",
    "id": "327",
    "promoter": "Sin asignar",
    "lat": "-12.220451",
    "lng": "-76.90654",
    "photo": "https://kc.kobotoolbox.org/media/original?media_file=alvaro_escuelar%2Fattachments%2Fb489648379a248ae9a50b5b25f15d5ca%2Fa15d6b31-583a-48f8-b3dc-1780d77aa4ec%2FIMG_20250424_201341-20_14_3.jpg"
  },
  {
    "headName": "Mariela Murga",
    "phone": "989 607 002",
    "dni": "9715348",
    "address": "A. Miguel Grau José Gálvez - V. M. T. 1939",
    "sector": "Jose Galvez",
    "id": "328",
    "promoter": "Adela Silva Vega",
    "lat": "-12.223789",
    "lng": "-76.907222",
    "photo": "https://kc.kobotoolbox.org/media/original?media_file=alvaro_escuelar%2Fattachments%2Fb489648379a248ae9a50b5b25f15d5ca%2Fdbb87f84-2807-4e4c-a288-b24408a8706f%2FIMG_20250424_202638-20_26_46.jpg"
  },
  {
    "headName": "Ricardo arriaga",
    "phone": "992830949",
    "dni": "No brinda",
    "address": "Av Miguel grau 1918 - Villa Poeta",
    "sector": "Jose Galvez",
    "id": "329",
    "promoter": "Sin asignar",
    "lat": "-12.223303",
    "lng": "-76.907122",
    "photo": "https://kc.kobotoolbox.org/media/original?media_file=alvaro_escuelar%2Fattachments%2Fb489648379a248ae9a50b5b25f15d5ca%2Fed8ba4e8-96f3-4864-a1eb-d9282702c65b%2FIMG_20250424_203521-20_35_45.jpg"
  },
  {
    "headName": "Diana García",
    "phone": "922 647 797",
    "dni": "44492872",
    "address": "Mz b lote 11 Av. Dos de mayo",
    "sector": "Jose Galvez",
    "id": "334",
    "promoter": "Adela Silva Vega",
    "lat": "-12.2254",
    "lng": "-76.904148",
    "photo": ""
  },
  {
    "headName": "Luis tazaico",
    "phone": "965494482",
    "dni": "No brinda",
    "address": "Vilcanota 147 - Villa Poeta",
    "sector": "Jose Galvez",
    "id": "346",
    "promoter": "Sin asignar",
    "lat": "-12.217274",
    "lng": "-76.907682",
    "photo": "https://kc.kobotoolbox.org/media/original?media_file=alvaro_escuelar%2Fattachments%2Fb489648379a248ae9a50b5b25f15d5ca%2F8491ef8d-79a4-444b-96cd-da128ecf732f%2FIMG_20250425_121219-12_12_30.jpg"
  },
  {
    "headName": "Edelberto Guamaní",
    "phone": "985528909",
    "dni": "8961439",
    "address": "Jirón carabeli 436",
    "sector": "Jose Galvez",
    "id": "354",
    "promoter": "Adela Silva Vega",
    "lat": "-12.218232",
    "lng": "-76.908832",
    "photo": ""
  },
  {
    "headName": "Villanueva Víctor",
    "phone": "946892731",
    "dni": "25442486",
    "address": "Girón Lurín Mz 155 lote 1",
    "sector": "Jose Galvez",
    "id": "366",
    "promoter": "Adela Silva Vega",
    "lat": "-12.22076",
    "lng": "-76.909388",
    "photo": ""
  },
  {
    "headName": "Ramon vaso hernandez",
    "phone": "969501595",
    "dni": "No brinda",
    "address": "Jr saenz peña 434",
    "sector": "Jose Galvez",
    "id": "404",
    "promoter": "Adela Silva Vega",
    "lat": "-12.224369",
    "lng": "-76.904912",
    "photo": "https://kc.kobotoolbox.org/media/original?media_file=alvaro_escuelar%2Fattachments%2Fb489648379a248ae9a50b5b25f15d5ca%2F51bc2f88-52fa-446e-99ee-21e1922ff58d%2FIMG_20250426_210748-21_8_20.jpg"
  },
  {
    "headName": "Patricia vaso cevallos",
    "phone": "980321286",
    "dni": "9704131",
    "address": "Jr saenz peña 433",
    "sector": "Jose Galvez",
    "id": "405",
    "promoter": "Adela Silva Vega",
    "lat": "-12.224553",
    "lng": "-76.90505",
    "photo": "https://kc.kobotoolbox.org/media/original?media_file=alvaro_escuelar%2Fattachments%2Fb489648379a248ae9a50b5b25f15d5ca%2F8454f8c1-4229-419e-80de-0112a1d19e31%2FIMG_20250426_211226-21_13_26.jpg"
  },
  {
    "headName": "Marco antonio torres dueñas",
    "phone": "999697592",
    "dni": "9418351",
    "address": "Jr saenz peña 434 2do piso",
    "sector": "Jose Galvez",
    "id": "406",
    "promoter": "Adela Silva Vega",
    "lat": "-12.224302",
    "lng": "-76.90495",
    "photo": "https://kc.kobotoolbox.org/media/original?media_file=alvaro_escuelar%2Fattachments%2Fb489648379a248ae9a50b5b25f15d5ca%2Faeafa771-a2f7-4b77-a0c3-1ccebfe7c51f%2FIMG_20250426_214156-22_41_38.jpg"
  },
  {
    "headName": "Sandra avanto",
    "phone": "947740460",
    "dni": "6676038",
    "address": "Jr paita mz b lt 19",
    "sector": "Jose Galvez",
    "id": "431",
    "promoter": "Sin asignar",
    "lat": "-12.223894",
    "lng": "-76.903235",
    "photo": "https://kc.kobotoolbox.org/media/original?media_file=alvaro_escuelar%2Fattachments%2Fb489648379a248ae9a50b5b25f15d5ca%2Fc9105d71-d25e-4b2f-a620-db52c86cade1%2FIMG_20250427_160930-16_10_31.jpg"
  },
  {
    "headName": "Rosa cruces castillo",
    "phone": "975965277",
    "dni": "9008232",
    "address": "Jr paita 1673",
    "sector": "Jose Galvez",
    "id": "436",
    "promoter": "Sin asignar",
    "lat": "-12.221611",
    "lng": "-76.90442",
    "photo": "https://kc.kobotoolbox.org/media/original?media_file=alvaro_escuelar%2Fattachments%2Fb489648379a248ae9a50b5b25f15d5ca%2F90bc6628-e5ad-41df-945e-e8e64eb84465%2FIMG_20250427_165540-16_55_51.jpg"
  },
  {
    "headName": "Nelly gomez pinedo",
    "phone": "940054612",
    "dni": "No brinda",
    "address": "Jr paita 1660 - Villa Poeta",
    "sector": "Jose Galvez",
    "id": "440",
    "promoter": "Sin asignar",
    "lat": "-12.220711",
    "lng": "-76.905058",
    "photo": "https://kc.kobotoolbox.org/media/original?media_file=alvaro_escuelar%2Fattachments%2Fb489648379a248ae9a50b5b25f15d5ca%2Fc473ae14-443b-4c1f-92f9-1c1ae2d8b61f%2FIMG_20250427_172304-17_23_47.jpg"
  },
  {
    "headName": "Luis Arana Pauline",
    "phone": "977835882",
    "dni": "9000113",
    "address": "Mz N Lt 29. Santa Rosa de las Conchitas",
    "sector": "Tablada de Lurín",
    "id": "453",
    "promoter": "Rossana Elena Marchinares Rojas",
    "lat": "-12.207699",
    "lng": "-76.926761",
    "photo": "https://kc.kobotoolbox.org/media/original?media_file=alvaro_escuelar%2Fattachments%2Fb489648379a248ae9a50b5b25f15d5ca%2F8cd31fc9-6a35-4a6a-a267-46e596692216%2F1000207336-11_9_6.jpg"
  },
  {
    "headName": "Diego Andrés Arana serrano",
    "phone": "982100140",
    "dni": "10021625",
    "address": "Mz n lote 29 santa rosa de las conchitas",
    "sector": "Tablada de Lurín",
    "id": "455",
    "promoter": "Flor de María Alfaro Caycho",
    "lat": "-12.207779",
    "lng": "-76.926832",
    "photo": "https://kc.kobotoolbox.org/media/original?media_file=alvaro_escuelar%2Fattachments%2Fb489648379a248ae9a50b5b25f15d5ca%2F6e45e4de-e69f-4484-97d9-ede3220433cc%2FIMG_20250428_111841-11_19_57.jpg"
  },
  {
    "headName": "María Portilla Vasques",
    "phone": "976348875",
    "dni": "43803870",
    "address": "Mz N Lt 26 Santa Rosa de las conchitas",
    "sector": "Tablada de Lurín",
    "id": "462",
    "promoter": "Rossana Elena Marchinares Rojas",
    "lat": "-12.208015",
    "lng": "-76.926521",
    "photo": "https://kc.kobotoolbox.org/media/original?media_file=alvaro_escuelar%2Fattachments%2Fb489648379a248ae9a50b5b25f15d5ca%2Fa942bf89-15b3-4789-b16a-cb4cce4e6b40%2F1000207353-11_39_0.jpg"
  },
  {
    "headName": "Susana Quispe Rodas",
    "phone": "967319603",
    "dni": "9705113",
    "address": "Mz Y Lt 5 Santa de las Conchitas",
    "sector": "Tablada de Lurín",
    "id": "465",
    "promoter": "Rossana Elena Marchinares Rojas",
    "lat": "-12.209063",
    "lng": "-76.925457",
    "photo": "https://kc.kobotoolbox.org/media/original?media_file=alvaro_escuelar%2Fattachments%2Fb489648379a248ae9a50b5b25f15d5ca%2F7c6e2ce7-4e28-4173-8cca-2efda511adec%2F1000207362-11_44_13.jpg"
  },
  {
    "headName": "Abigail Susana Alarcón Quispe",
    "phone": "900042593",
    "dni": "70995373",
    "address": "Mz Y Lt 5 Santa Rosa de las Conchitas",
    "sector": "Tablada de Lurín",
    "id": "468",
    "promoter": "Rossana Elena Marchinares Rojas",
    "lat": "-12.208896",
    "lng": "-76.925457",
    "photo": "https://kc.kobotoolbox.org/media/original?media_file=alvaro_escuelar%2Fattachments%2Fb489648379a248ae9a50b5b25f15d5ca%2F4747bc12-7a32-4618-af2f-da60e249ee78%2F1000207391-12_2_1.jpg"
  },
  {
    "headName": "Soledad Ramírez Llállire",
    "phone": "946094725",
    "dni": "10645449",
    "address": "Mz Y Lt 9 Santa Rosa de las Conchitas",
    "sector": "Tablada de Lurín",
    "id": "471",
    "promoter": "Rossana Elena Marchinares Rojas",
    "lat": "-12.208933",
    "lng": "-76.926733",
    "photo": "https://kc.kobotoolbox.org/media/original?media_file=alvaro_escuelar%2Fattachments%2Fb489648379a248ae9a50b5b25f15d5ca%2F5aaba9af-3ef5-419c-a9e3-047d6c702431%2F1000207399-12_11_28.jpg"
  },
  {
    "headName": "Ana Lucia de la Cruz Bernales",
    "phone": "937300025",
    "dni": "42389719",
    "address": "Mz Y Lt 11 Santa Rosa de las Conchitas",
    "sector": "Tablada de Lurín",
    "id": "473",
    "promoter": "Rossana Elena Marchinares Rojas",
    "lat": "-12.209372",
    "lng": "-76.925222",
    "photo": "https://kc.kobotoolbox.org/media/original?media_file=alvaro_escuelar%2Fattachments%2Fb489648379a248ae9a50b5b25f15d5ca%2F6252da1d-5330-4c08-b6b8-1cd02193c839%2F1000207400-12_18_57.jpg"
  },
  {
    "headName": "Ronald Edison Alarcon Merino",
    "phone": "999402793",
    "dni": "10081528",
    "address": "Mz Y Lt10A Santa Rosa de las Conchitas",
    "sector": "Tablada de Lurín",
    "id": "475",
    "promoter": "Rossana Elena Marchinares Rojas",
    "lat": "-12.20906",
    "lng": "-76.924944",
    "photo": "https://kc.kobotoolbox.org/media/original?media_file=alvaro_escuelar%2Fattachments%2Fb489648379a248ae9a50b5b25f15d5ca%2F978d1a00-74ea-4c4e-962e-f6aeaf2e15ff%2F1000207409-12_27_22.jpg"
  },
  {
    "headName": "Jessica Gabriela Alarcón Merino",
    "phone": "986722782",
    "dni": "10088091",
    "address": "Mz Y Lt 10 Santa Rosa de las Conchitas",
    "sector": "Tablada de Lurín",
    "id": "479",
    "promoter": "Rossana Elena Marchinares Rojas",
    "lat": "-12.209023",
    "lng": "-76.924987",
    "photo": "https://kc.kobotoolbox.org/media/original?media_file=alvaro_escuelar%2Fattachments%2Fb489648379a248ae9a50b5b25f15d5ca%2F6cf626fc-d6d7-45b1-989e-624de7d1a7df%2F1000207410-12_39_12.jpg"
  },
  {
    "headName": "Mauricia Toledo Pumacallawi",
    "phone": "994724485",
    "dni": "10522699",
    "address": "Mz Z Lt 5 Santa Rosa de las Conchitas",
    "sector": "Tablada de Lurín",
    "id": "480",
    "promoter": "Rossana Elena Marchinares Rojas",
    "lat": "-12.209014",
    "lng": "-76.924938",
    "photo": "https://kc.kobotoolbox.org/media/original?media_file=alvaro_escuelar%2Fattachments%2Fb489648379a248ae9a50b5b25f15d5ca%2F40526e52-3c70-432b-af98-17981b4df8c4%2F1000207415-12_49_26.jpg"
  },
  {
    "headName": "Patricia Arias Layme",
    "phone": "975811186",
    "dni": "9703572",
    "address": "Mz Z Lt 8 Santa Rosa de las Conchitas",
    "sector": "Tablada de Lurín",
    "id": "482",
    "promoter": "Rossana Elena Marchinares Rojas",
    "lat": "-12.20889",
    "lng": "-76.925044",
    "photo": "https://kc.kobotoolbox.org/media/original?media_file=alvaro_escuelar%2Fattachments%2Fb489648379a248ae9a50b5b25f15d5ca%2F01fe717e-9be3-4cfe-ac48-d17f71229054%2F1000207418-13_1_14.jpg"
  },
  {
    "headName": "Josep Torres Juárez",
    "phone": "934095856",
    "dni": "75359461",
    "address": "Mz F Lt 5 Santa Rosa de las Conchitas",
    "sector": "Tablada de Lurín",
    "id": "484",
    "promoter": "Rossana Elena Marchinares Rojas",
    "lat": "-12.209582",
    "lng": "-76.925095",
    "photo": "https://kc.kobotoolbox.org/media/original?media_file=alvaro_escuelar%2Fattachments%2Fb489648379a248ae9a50b5b25f15d5ca%2Fcb2aec78-a4c1-4144-a0f6-e04bebec6c74%2F1000207426-13_21_20.jpg"
  },
  {
    "headName": "Maricruz Mosquera",
    "phone": "920006835",
    "dni": "48742892",
    "address": "Mz F Lt 5 Santa Rosa de las Conchitas",
    "sector": "Tablada de Lurín",
    "id": "485",
    "promoter": "Rossana Elena Marchinares Rojas",
    "lat": "-12.209755",
    "lng": "-76.92559",
    "photo": "https://kc.kobotoolbox.org/media/original?media_file=alvaro_escuelar%2Fattachments%2Fb489648379a248ae9a50b5b25f15d5ca%2F2768aae0-c8dc-42ae-8feb-14c542b09a8e%2F1000207427-13_30_5.jpg"
  },
  {
    "headName": "Milagros Levano Miranda",
    "phone": "949667768",
    "dni": "45300678",
    "address": "Mz F Lt 4 Santa Rosa de las Conchitas",
    "sector": "Tablada de Lurín",
    "id": "486",
    "promoter": "Rossana Elena Marchinares Rojas",
    "lat": "-12.209678",
    "lng": "-76.924947",
    "photo": "https://kc.kobotoolbox.org/media/original?media_file=alvaro_escuelar%2Fattachments%2Fb489648379a248ae9a50b5b25f15d5ca%2F33124c1c-0980-43d7-8c60-525ee763e642%2F1000207436-13_44_22.jpg"
  },
  {
    "headName": "Yolanda María Madueño Fernandez",
    "phone": "996231498",
    "dni": "47806657",
    "address": "Mz F1 Lt 3 Santa Rosa de las conchitas",
    "sector": "Tablada de Lurín",
    "id": "488",
    "promoter": "Rossana Elena Marchinares Rojas",
    "lat": "-12.209636",
    "lng": "-76.924949",
    "photo": "https://kc.kobotoolbox.org/media/original?media_file=alvaro_escuelar%2Fattachments%2Fb489648379a248ae9a50b5b25f15d5ca%2F04299571-1765-4e94-82ab-399cc53a840d%2F1000207447-13_51_28.jpg"
  },
  {
    "headName": "Karolina Calderón Cordova",
    "phone": "953167187",
    "dni": "72355767",
    "address": "Mz N Lt 27 Santa Rosa de las Conchitas",
    "sector": "Tablada de Lurín",
    "id": "491",
    "promoter": "Rossana Elena Marchinares Rojas",
    "lat": "-12.208023",
    "lng": "-76.926531",
    "photo": "https://kc.kobotoolbox.org/media/original?media_file=alvaro_escuelar%2Fattachments%2Fb489648379a248ae9a50b5b25f15d5ca%2Ffade6a23-82b8-4814-9621-05eb4c021fb7%2F1000207457-14_4_19.jpg"
  },
  {
    "headName": "Edwin Ramos Centeno",
    "phone": "963184371",
    "dni": "7232346",
    "address": "Mz F1 Lt 5 Santa Rosa de las conchitas",
    "sector": "Tablada de Lurín",
    "id": "504",
    "promoter": "Rossana Elena Marchinares Rojas",
    "lat": "-12.204844",
    "lng": "-76.922757",
    "photo": "https://kc.kobotoolbox.org/media/original?media_file=alvaro_escuelar%2Fattachments%2Fb489648379a248ae9a50b5b25f15d5ca%2Fa52625bd-453f-496e-8e0f-71e4b9dc3ec7%2F147ea04a-ef3f-4cb4-a5f0-94e9d794d135-1_all_12515-14_51_16.jpg"
  },
  {
    "headName": "Francisco Valdivia pacheco",
    "phone": "944984053",
    "dni": "9001977",
    "address": "Jr Atahualpa 201",
    "sector": "Inca Pachacutec",
    "id": "528",
    "promoter": "Lourdes Maldonado",
    "lat": "-12.176169",
    "lng": "-76.946846",
    "photo": "https://kc.kobotoolbox.org/media/original?media_file=alvaro_escuelar%2Fattachments%2Fb489648379a248ae9a50b5b25f15d5ca%2F9d347523-6800-4722-b403-3c2ed92c69fc%2F17458756820805519178589385450252-16_28_12.jpg"
  },
  {
    "headName": "Azgat panebta",
    "phone": "963837461",
    "dni": "No brinda",
    "address": "Jr Faustino Sánchez carrion 153",
    "sector": "Inca Pachacutec",
    "id": "531",
    "promoter": "Lourdes Maldonado",
    "lat": "-12.176626",
    "lng": "-76.947083",
    "photo": "https://kc.kobotoolbox.org/media/original?media_file=alvaro_escuelar%2Fattachments%2Fb489648379a248ae9a50b5b25f15d5ca%2Fb61beed0-2977-413b-820b-4becc448d5c8%2F17458775328288244052266428299631-16_59_5.jpg"
  },
  {
    "headName": "Ignasio castillo",
    "phone": "971388994",
    "dni": "10790037",
    "address": "jR Jauja mz 162H Lt 2 - Villa Poeta",
    "sector": "Jose Galvez",
    "id": "534",
    "promoter": "Sin asignar",
    "lat": "-12.222125",
    "lng": "-76.903674",
    "photo": "https://kc.kobotoolbox.org/media/original?media_file=alvaro_escuelar%2Fattachments%2Fb489648379a248ae9a50b5b25f15d5ca%2F80d93681-c2ab-4318-8352-b9f03f2916cf%2FIMG_20250428_170845-17_9_31.jpg"
  },
  {
    "headName": "María Colque flores",
    "phone": "946575201",
    "dni": "43273685",
    "address": "Jr Faustino Sanchez Carrión 177",
    "sector": "Inca Pachacutec",
    "id": "538",
    "promoter": "Lourdes Maldonado",
    "lat": "-12.176785",
    "lng": "-76.947019",
    "photo": "https://kc.kobotoolbox.org/media/original?media_file=alvaro_escuelar%2Fattachments%2Fb489648379a248ae9a50b5b25f15d5ca%2F4a169951-a0ca-4251-85e0-b6d8fc573632%2F17458784532991083657075224169411-17_14_18.jpg"
  },
  {
    "headName": "Dayana angeles chota",
    "phone": "938491083",
    "dni": "72795119",
    "address": "Av José pardo 300",
    "sector": "Inca Pachacutec",
    "id": "542",
    "promoter": "Lourdes Maldonado",
    "lat": "-12.177015",
    "lng": "-76.947029",
    "photo": "https://kc.kobotoolbox.org/media/original?media_file=alvaro_escuelar%2Fattachments%2Fb489648379a248ae9a50b5b25f15d5ca%2F5aca0c1d-0868-4495-9a53-16a7db966f2f%2FIMG_20250427_124552548_HDR-17_34_40.jpg"
  },
  {
    "headName": "Juan huicamasco davila",
    "phone": "991570063",
    "dni": "10079994",
    "address": "Av José pardo 380",
    "sector": "Inca Pachacutec",
    "id": "559",
    "promoter": "Lourdes Maldonado",
    "lat": "-12.177154",
    "lng": "-76.947428",
    "photo": "https://kc.kobotoolbox.org/media/original?media_file=alvaro_escuelar%2Fattachments%2Fb489648379a248ae9a50b5b25f15d5ca%2F29f49bf6-6a1b-4501-8a29-bb7d43b6013e%2F1745881410700510882843652361525-18_3_36.jpg"
  },
  {
    "headName": "Carlos gallardo arias",
    "phone": "924651785",
    "dni": "8967947",
    "address": "Mz 154a lt 2 urb - villa poeta",
    "sector": "Jose Galvez",
    "id": "565",
    "promoter": "Sin asignar",
    "lat": "-12.220678",
    "lng": "-76.910746",
    "photo": "https://kc.kobotoolbox.org/media/original?media_file=alvaro_escuelar%2Fattachments%2Fb489648379a248ae9a50b5b25f15d5ca%2Ffda2dde5-50f7-41a8-a7b9-afe3399e23f0%2FIMG_20250428_181633-18_17_5.jpg"
  },
  {
    "headName": "María lachira",
    "phone": "948102742",
    "dni": "No brinda",
    "address": "Jr inca roca 353",
    "sector": "Inca Pachacutec",
    "id": "567",
    "promoter": "Lourdes Maldonado",
    "lat": "-12.176952",
    "lng": "-76.947476",
    "photo": "https://kc.kobotoolbox.org/media/original?media_file=alvaro_escuelar%2Fattachments%2Fb489648379a248ae9a50b5b25f15d5ca%2F1cc61843-0d5c-4ae8-ae24-bdc5fd2deb0f%2F17458822079941835417547584932707-18_16_54.jpg"
  },
  {
    "headName": "Esther berrocal",
    "phone": "984774580",
    "dni": "No brinda",
    "address": "Jr putumayo mz 149 lt 3",
    "sector": "Jose Galvez",
    "id": "574",
    "promoter": "Sin asignar",
    "lat": "-12.220173",
    "lng": "-76.910756",
    "photo": "https://kc.kobotoolbox.org/media/original?media_file=alvaro_escuelar%2Fattachments%2Fb489648379a248ae9a50b5b25f15d5ca%2F3c83ac2e-1a78-4383-abcd-fadd83908b17%2FIMG_20250428_183703-18_37_19.jpg"
  },
  {
    "headName": "Tania herrera",
    "phone": "991849575",
    "dni": "71259365",
    "address": "Mz x lote 12 A 1",
    "sector": "Tablada de Lurín",
    "id": "588",
    "promoter": "Flor de María Alfaro Caycho",
    "lat": "-12.20837",
    "lng": "-76.925548",
    "photo": "https://kc.kobotoolbox.org/media/original?media_file=alvaro_escuelar%2Fattachments%2Fb489648379a248ae9a50b5b25f15d5ca%2F39a95da7-7199-4fd9-bdd1-5335349dafd9%2F17458889858193559007842182301355-20_10_3.jpg"
  },
  {
    "headName": "Luis Brayan Azurza Motta",
    "phone": "931026679",
    "dni": "43205404",
    "address": "Mz v lote 3 cmte 6",
    "sector": "Tablada de Lurín",
    "id": "594",
    "promoter": "RM",
    "lat": "-12.208707",
    "lng": "-76.924735",
    "photo": ""
  },
  {
    "headName": "Juliana artiaga segura",
    "phone": "927214096",
    "dni": "40327444",
    "address": "Mz E1 lote 13",
    "sector": "Tablada de Lurín",
    "id": "600",
    "promoter": "RM",
    "lat": "-12.209018",
    "lng": "-76.924594",
    "photo": "https://kc.kobotoolbox.org/media/original?media_file=alvaro_escuelar%2Fattachments%2Fb489648379a248ae9a50b5b25f15d5ca%2F7926c528-25af-484e-84bc-bc8ba522ab20%2F17458911892592687791420693640263-20_47_14.jpg"
  },
  {
    "headName": "Edith Arias Layme",
    "phone": "989681072",
    "dni": "9703573",
    "address": "Mz E1 Lt 10 Tablada de Lurin",
    "sector": "Tablada de Lurín",
    "id": "601",
    "promoter": "Rossana Elena Marchinares Rojas",
    "lat": "-12.208902",
    "lng": "-76.923907",
    "photo": "https://kc.kobotoolbox.org/media/original?media_file=alvaro_escuelar%2Fattachments%2Fb489648379a248ae9a50b5b25f15d5ca%2F145dfee0-2d94-4c3c-b7df-c67895de874f%2F1000207696-20_55_23.jpg"
  },
  {
    "headName": "María olarte",
    "phone": "901813527",
    "dni": "44546948",
    "address": "Atahualpa mz 4 A lote 7",
    "sector": "Tablada de Lurín",
    "id": "619",
    "promoter": "RM",
    "lat": "-12.20118",
    "lng": "-76.923378",
    "photo": "https://kc.kobotoolbox.org/media/original?media_file=alvaro_escuelar%2Fattachments%2Fb489648379a248ae9a50b5b25f15d5ca%2Ff51991a5-31fb-47b1-987f-353e066aede0%2F1745938317063183609659922017838-9_52_13.jpg"
  },
  {
    "headName": "Irina flores",
    "phone": "993074755",
    "dni": "40692961",
    "address": "Atahualpa mz 5A lote 10",
    "sector": "Tablada de Lurín",
    "id": "623",
    "promoter": "RM",
    "lat": "-12.200474",
    "lng": "-76.922423",
    "photo": "https://kc.kobotoolbox.org/media/original?media_file=alvaro_escuelar%2Fattachments%2Fb489648379a248ae9a50b5b25f15d5ca%2F2fdcf29d-b83a-486c-9956-29ac2b05c6f5%2F17459388688055682053853662640705-10_1_59.jpg"
  },
  {
    "headName": "René López",
    "phone": "907634760",
    "dni": "60943649",
    "address": "Av unión mz 10 lote 8",
    "sector": "Tablada de Lurín",
    "id": "637",
    "promoter": "RM",
    "lat": "-12.200342",
    "lng": "-76.923607",
    "photo": "https://kc.kobotoolbox.org/media/original?media_file=alvaro_escuelar%2Fattachments%2Fb489648379a248ae9a50b5b25f15d5ca%2F38307c25-0771-46d5-b17d-34548200f69d%2FIMG_20250429_104550-10_46_31.jpg"
  },
  {
    "headName": "Fernando Anderson",
    "phone": "928504561",
    "dni": "48231394",
    "address": "Córdoba 409",
    "sector": "Tablada de Lurín",
    "id": "640",
    "promoter": "RM",
    "lat": "-12.200679",
    "lng": "-76.924075",
    "photo": "https://kc.kobotoolbox.org/media/original?media_file=alvaro_escuelar%2Fattachments%2Fb489648379a248ae9a50b5b25f15d5ca%2F45eda8ea-8ca8-40fe-8fd3-5c4ef05f9d05%2FIMG_20250429_105206-10_52_40.jpg"
  },
  {
    "headName": "Alberto Saldivar",
    "phone": "957361284",
    "dni": "No brinda",
    "address": "Mz 30 Lt 1a",
    "sector": "Tablada de Lurín",
    "id": "646",
    "promoter": "Rossana Elena Marchinares Rojas",
    "lat": "-12.201387",
    "lng": "-76.925197",
    "photo": "https://kc.kobotoolbox.org/media/original?media_file=alvaro_escuelar%2Fattachments%2Fb489648379a248ae9a50b5b25f15d5ca%2Faf169263-63be-4847-8056-20d06d9bf9ae%2F1000208105-11_4_44.jpg"
  },
  {
    "headName": "Gerles oteno rios",
    "phone": "987353626",
    "dni": "21061382",
    "address": "Mz 3 a lote 14",
    "sector": "Tablada de Lurín",
    "id": "649",
    "promoter": "RM",
    "lat": "-12.201585",
    "lng": "-76.925412",
    "photo": "https://kc.kobotoolbox.org/media/original?media_file=alvaro_escuelar%2Fattachments%2Fb489648379a248ae9a50b5b25f15d5ca%2F65c813ce-e413-4799-9b83-bc9338ccb0b8%2FIMG_20250429_110838-11_10_13.jpg"
  },
  {
    "headName": "Luis Azurza Huallpa",
    "phone": "987353626",
    "dni": "70902791",
    "address": "Mz v comte 6",
    "sector": "Tablada de Lurín",
    "id": "655",
    "promoter": "RM",
    "lat": "-12.203112",
    "lng": "-76.925067",
    "photo": "https://kc.kobotoolbox.org/media/original?media_file=alvaro_escuelar%2Fattachments%2Fb489648379a248ae9a50b5b25f15d5ca%2F1c421e92-b238-4045-9047-d0a4a6bf1f1e%2FIMG_20250429_112332-11_24_2.jpg"
  },
  {
    "headName": "José de la O",
    "phone": "918190218",
    "dni": "48206488",
    "address": "Los cedros s/n",
    "sector": "Tablada de Lurín",
    "id": "660",
    "promoter": "RM",
    "lat": "-12.205444",
    "lng": "-76.926223",
    "photo": "https://kc.kobotoolbox.org/media/original?media_file=alvaro_escuelar%2Fattachments%2Fb489648379a248ae9a50b5b25f15d5ca%2Fa4cf993f-7d0d-49a3-86ee-3de8d80c6e45%2FIMG_20250429_114101-11_42_27.jpg"
  },
  {
    "headName": "Miriam Aguerto",
    "phone": "923316119",
    "dni": "No brinda",
    "address": "Mz N Lt 10 Santa Rosa de las Conchitas",
    "sector": "Tablada de Lurín",
    "id": "677",
    "promoter": "Rossana Elena Marchinares Rojas",
    "lat": "-12.207638",
    "lng": "-76.925862",
    "photo": "https://kc.kobotoolbox.org/media/original?media_file=alvaro_escuelar%2Fattachments%2Fb489648379a248ae9a50b5b25f15d5ca%2F15f62530-556f-4397-8338-5e76531f01a0%2F1000208192-13_14_0.jpg"
  },
  {
    "headName": "Manuel Carranza",
    "phone": "917593557",
    "dni": "No brinda",
    "address": "Mz X Lt 5 Santa Rosa de las conchitas",
    "sector": "Tablada de Lurín",
    "id": "681",
    "promoter": "Rossana Elena Marchinares Rojas",
    "lat": "-12.20794",
    "lng": "-76.925643",
    "photo": "https://kc.kobotoolbox.org/media/original?media_file=alvaro_escuelar%2Fattachments%2Fb489648379a248ae9a50b5b25f15d5ca%2Fbe6376e3-1b88-4539-8c4e-970399e54441%2F1000208194-13_29_2.jpg"
  },
  {
    "headName": "Solis Camarena julio",
    "phone": "946944687",
    "dni": "10523928",
    "address": "Av unión 731",
    "sector": "Inca Pachacutec",
    "id": "700",
    "promoter": "Lourdes Maldonado",
    "lat": "-12.177204",
    "lng": "-76.948365",
    "photo": "https://kc.kobotoolbox.org/media/original?media_file=alvaro_escuelar%2Fattachments%2Fb489648379a248ae9a50b5b25f15d5ca%2F3e8c2c71-5faa-4a23-a93b-c5f9aa8463e0%2F17459591539233148978553111928251-15_39_21.jpg"
  },
  {
    "headName": "José rivera bravo",
    "phone": "906657136",
    "dni": "75407106",
    "address": "Jr Huayna capac 335",
    "sector": "Inca Pachacutec",
    "id": "706",
    "promoter": "Lourdes Maldonado",
    "lat": "-12.175796",
    "lng": "-76.948562",
    "photo": "https://kc.kobotoolbox.org/media/original?media_file=alvaro_escuelar%2Fattachments%2Fb489648379a248ae9a50b5b25f15d5ca%2F3dffd854-fcdb-4dfc-b907-1f63f4f12ae3%2F17459622849812911050866395940931-16_31_34.jpg"
  },
  {
    "headName": "Ana sofia maldonado",
    "phone": "928776157",
    "dni": "No brinda",
    "address": "calle 3- Mz 162C lt 8 - villa poeta 2",
    "sector": "Jose Galvez",
    "id": "708",
    "promoter": "Sin asignar",
    "lat": "-12.219875",
    "lng": "-76.904272",
    "photo": "https://kc.kobotoolbox.org/media/original?media_file=alvaro_escuelar%2Fattachments%2Fb489648379a248ae9a50b5b25f15d5ca%2Fd67b3c69-aeca-4339-bddf-2da5ba4ec903%2FIMG_20250429_165509-16_55_18.jpg"
  },
  {
    "headName": "Denis rojas",
    "phone": "999304389",
    "dni": "61364833",
    "address": "Jr Atahualpa 755",
    "sector": "Inca Pachacutec",
    "id": "710",
    "promoter": "Lourdes Maldonado",
    "lat": "-12.175922",
    "lng": "-76.946784",
    "photo": "https://kc.kobotoolbox.org/media/original?media_file=alvaro_escuelar%2Fattachments%2Fb489648379a248ae9a50b5b25f15d5ca%2Ffe736c5a-2934-4b9c-b45e-909f2f1615d3%2F1745963772478659827132908925680-16_56_17.jpg"
  },
  {
    "headName": "Víctor Castillo",
    "phone": "910242372",
    "dni": "46631819",
    "address": "Calle ferrocarril Mz. 162 c lote 11",
    "sector": "Jose Galvez",
    "id": "711",
    "promoter": "Adela Silva Vega",
    "lat": "-12.221108",
    "lng": "-76.903817",
    "photo": ""
  },
  {
    "headName": "Edmundo Bernavid",
    "phone": "998850636",
    "dni": "No brinda",
    "address": "Prolongación ferrocarril 217",
    "sector": "Jose Galvez",
    "id": "722",
    "promoter": "Adela Silva Vega",
    "lat": "-12.220542",
    "lng": "-76.90391",
    "photo": ""
  },
  {
    "headName": "Gutierrez Taipe",
    "phone": "992307341",
    "dni": "No brinda",
    "address": "Jirón ferrocarril 14 01",
    "sector": "Jose Galvez",
    "id": "726",
    "promoter": "Adela Silva Vega",
    "lat": "-12.218871",
    "lng": "-76.904311",
    "photo": ""
  },
  {
    "headName": "María purga perez",
    "phone": "979561403",
    "dni": "No brinda",
    "address": "jr Ciro alegría 102 - Melgar",
    "sector": "Inca Pachacutec",
    "id": "729",
    "promoter": "Lourdes Maldonado",
    "lat": "-12.178259",
    "lng": "-76.945123",
    "photo": "https://kc.kobotoolbox.org/media/original?media_file=alvaro_escuelar%2Fattachments%2Fb489648379a248ae9a50b5b25f15d5ca%2Fbb823a76-edac-4fd2-9f37-d76ef0e942d8%2F17459661208473815809071674083360-17_35_27.jpg"
  },
  {
    "headName": "William narvaez",
    "phone": "941852895",
    "dni": "No brinda",
    "address": "jr Ciro alegría 198 - Melgar",
    "sector": "Inca Pachacutec",
    "id": "734",
    "promoter": "Lourdes Maldonado",
    "lat": "-12.178879",
    "lng": "-76.946039",
    "photo": "https://kc.kobotoolbox.org/media/original?media_file=alvaro_escuelar%2Fattachments%2Fb489648379a248ae9a50b5b25f15d5ca%2F70758265-64d4-485d-9498-0624936bc179%2F17459670450416047160468480285352-17_50_54.jpg"
  },
  {
    "headName": "Edwin Espíritu Rivera",
    "phone": "981027407",
    "dni": "7893859",
    "address": "Jirón Suque 2 88",
    "sector": "Jose Galvez",
    "id": "741",
    "promoter": "Adela Silva Vega",
    "lat": "-12.21752",
    "lng": "-76.905118",
    "photo": ""
  },
  {
    "headName": "Pedro huaranca duran",
    "phone": "992116632",
    "dni": "9721523",
    "address": "Jr Ciro alegria260 - Melgar",
    "sector": "Inca Pachacutec",
    "id": "742",
    "promoter": "Lourdes Maldonado",
    "lat": "-12.179128",
    "lng": "-76.946745",
    "photo": "https://kc.kobotoolbox.org/media/original?media_file=alvaro_escuelar%2Fattachments%2Fb489648379a248ae9a50b5b25f15d5ca%2F5d96f5a6-c6aa-44fb-8004-2a5e41ffc232%2F17459683644342024061905230558587-18_12_54.jpg"
  },
  {
    "headName": "Melchor hurtado",
    "phone": "986148066",
    "dni": "8975819",
    "address": "Jr supe 217 - villa poeta 2",
    "sector": "Jose Galvez",
    "id": "750",
    "promoter": "Sin asignar",
    "lat": "-12.217225",
    "lng": "-76.905809",
    "photo": "https://kc.kobotoolbox.org/media/original?media_file=alvaro_escuelar%2Fattachments%2Fb489648379a248ae9a50b5b25f15d5ca%2Fbb5cc434-5e08-4214-81f8-283b25ef2e03%2FIMG_20250429_182619-18_26_33.jpg"
  },
  {
    "headName": "Eugenia inca",
    "phone": "928772582",
    "dni": "No brinda",
    "address": "Jr Cesar Vallejo 134",
    "sector": "Inca Pachacutec",
    "id": "752",
    "promoter": "Lourdes Maldonado",
    "lat": "-12.179675",
    "lng": "-76.946764",
    "photo": "https://kc.kobotoolbox.org/media/original?media_file=alvaro_escuelar%2Fattachments%2Fb489648379a248ae9a50b5b25f15d5ca%2Fe4e9c4ca-f844-4d77-adb3-aa8e9fde9435%2F17459695740405275571591709890476-18_33_1.jpg"
  },
  {
    "headName": "Diana osorio",
    "phone": "936680781",
    "dni": "No brinda",
    "address": "Calle Antonio Raymondi 135",
    "sector": "Inca Pachacutec",
    "id": "805",
    "promoter": "Lourdes Maldonado",
    "lat": "-12.179205",
    "lng": "-76.94582",
    "photo": "https://kc.kobotoolbox.org/media/original?media_file=alvaro_escuelar%2Fattachments%2Fb489648379a248ae9a50b5b25f15d5ca%2F41f89f95-3162-4779-a748-7dd4157eea59%2F1746011819733801109552813997887-6_17_9.jpg"
  },
  {
    "headName": "Nancy Hurtado",
    "phone": "961505435",
    "dni": "No brinda",
    "address": "Jr Ciro alegría 238",
    "sector": "Inca Pachacutec",
    "id": "881",
    "promoter": "Lourdes Maldonado",
    "lat": "-12.179329",
    "lng": "-76.945646",
    "photo": "https://kc.kobotoolbox.org/media/original?media_file=alvaro_escuelar%2Fattachments%2Fb489648379a248ae9a50b5b25f15d5ca%2Fed97037e-1ff9-4cec-af4f-a3c3acf5e17a%2FIMG_20250427_124552548_HDR-16_1_40.jpg"
  },
  {
    "headName": "familia Uriol",
    "phone": "922013758",
    "dni": "43108753",
    "address": "A.V Atahulapa ,Mz 5A Lt 14 ,zona Antigua",
    "sector": "Tablada de Lurín",
    "id": "912",
    "promoter": "Rossana Elena Marchinares Rojas",
    "lat": "-12.199855",
    "lng": "-76.921403",
    "photo": "https://kc.kobotoolbox.org/media/original?media_file=alvaro_escuelar%2Fattachments%2Fb489648379a248ae9a50b5b25f15d5ca%2F4201df91-229c-48f4-b44e-3989b9179793%2F1000209163-17_22_34.jpg"
  },
  {
    "headName": "Anderson antay Velarde",
    "phone": "967441685",
    "dni": "47992549",
    "address": "Av Atahualpa 6 A lote 3",
    "sector": "Tablada de Lurín",
    "id": "921",
    "promoter": "RM",
    "lat": "-12.199393",
    "lng": "-76.920585",
    "photo": "https://kc.kobotoolbox.org/media/original?media_file=alvaro_escuelar%2Fattachments%2Fb489648379a248ae9a50b5b25f15d5ca%2F36e5a52e-4a0b-4b2a-b2d3-680a3ea80606%2FInShot_20250430_174358567-17_45_40.jpg"
  },
  {
    "headName": "Zoraida Uriol",
    "phone": "922013758",
    "dni": "43108753",
    "address": "Av Atahualpa Mz A Lt 12 Zona Antigua,Tablada de Lurin",
    "sector": "Tablada de Lurín",
    "id": "925",
    "promoter": "Rossana Elena Marchinares Rojas",
    "lat": "-12.198867",
    "lng": "-76.919654",
    "photo": "https://kc.kobotoolbox.org/media/original?media_file=alvaro_escuelar%2Fattachments%2Fb489648379a248ae9a50b5b25f15d5ca%2F8bbc7dc0-8465-4221-acdb-422dc88fccda%2F1000208017-17_42_43.jpg"
  },
  {
    "headName": "Fernando talavera",
    "phone": "982172113",
    "dni": "No brinda",
    "address": "General Necochea. Cuadra 777 ,Zona antigua",
    "sector": "Tablada de Lurín",
    "id": "942",
    "promoter": "Rossana Elena Marchinares Rojas",
    "lat": "-12.196938",
    "lng": "-76.920256",
    "photo": "https://kc.kobotoolbox.org/media/original?media_file=alvaro_escuelar%2Fattachments%2Fb489648379a248ae9a50b5b25f15d5ca%2Fb0f28aeb-6a9b-48a2-be20-d3e621eeef2c%2F1000209179-18_17_54.jpg"
  },
  {
    "headName": "Isaura Ramos",
    "phone": "949483971",
    "dni": "No brinda",
    "address": "Jirón Nazca 2 90",
    "sector": "Jose Galvez",
    "id": "948",
    "promoter": "Adela Silva Vega",
    "lat": "-12.21618",
    "lng": "-76.905076",
    "photo": ""
  },
  {
    "headName": "Mabel retes",
    "phone": "956439762",
    "dni": "40028262",
    "address": "Jr Nazca 290 - Villa Poeta",
    "sector": "Jose Galvez",
    "id": "949",
    "promoter": "Sin asignar",
    "lat": "-12.215951",
    "lng": "-76.904802",
    "photo": "https://kc.kobotoolbox.org/media/original?media_file=alvaro_escuelar%2Fattachments%2Fb489648379a248ae9a50b5b25f15d5ca%2F7c73ee23-69d9-442b-89fe-4f52a9431245%2FIMG_20250430_183322-18_33_37.jpg"
  },
  {
    "headName": "Jesus Alberto huaman malqui",
    "phone": "936609166",
    "dni": "9723451",
    "address": "Av Necochea mc8 lote 1 zona antigua tablada de lurin",
    "sector": "Tablada de Lurín",
    "id": "957",
    "promoter": "RM",
    "lat": "-12.196506",
    "lng": "-76.919359",
    "photo": "https://kc.kobotoolbox.org/media/original?media_file=alvaro_escuelar%2Fattachments%2Fb489648379a248ae9a50b5b25f15d5ca%2F1f74d0b9-370a-43af-af51-9ade285f72c6%2FIMG_20250430_184525-18_46_23.jpg"
  },
  {
    "headName": "Andrés Uscuvilca",
    "phone": "993267426",
    "dni": "No brinda",
    "address": "Av Necochea Mz C8 Lt 1 Zona Antigua",
    "sector": "Tablada de Lurín",
    "id": "962",
    "promoter": "Rossana Elena Marchinares Rojas",
    "lat": "-12.196552",
    "lng": "-76.919405",
    "photo": "https://kc.kobotoolbox.org/media/original?media_file=alvaro_escuelar%2Fattachments%2Fb489648379a248ae9a50b5b25f15d5ca%2Ff48b7563-60d3-4075-8608-dd74dc205af6%2F1000209206-18_53_16.jpg"
  },
  {
    "headName": "Guísela Edith obregon Rodríguez",
    "phone": "997942324",
    "dni": "43222775",
    "address": "Av Córdoba mz A lote 13 zona antigua tablada de lurin",
    "sector": "Tablada de Lurín",
    "id": "969",
    "promoter": "RM",
    "lat": "-12.196571",
    "lng": "-76.919423",
    "photo": "https://kc.kobotoolbox.org/media/original?media_file=alvaro_escuelar%2Fattachments%2Fb489648379a248ae9a50b5b25f15d5ca%2F9ad8422f-def7-4f4d-8a88-c6b20986f5ca%2FIMG_20250430_190515-19_7_13.jpg"
  },
  {
    "headName": "Diego Terrazas Cruz",
    "phone": "919619348",
    "dni": "44948564",
    "address": "Av Atahualpa Mz c Lt 1 A AA.HH Daniel Alcides Carrión",
    "sector": "Tablada de Lurín",
    "id": "975",
    "promoter": "Rossana Elena Marchinares Rojas",
    "lat": "-12.197822",
    "lng": "-76.918078",
    "photo": "https://kc.kobotoolbox.org/media/original?media_file=alvaro_escuelar%2Fattachments%2Fb489648379a248ae9a50b5b25f15d5ca%2Fd4776dd3-3647-4a31-afd9-503d6da171dd%2F1000209250-19_24_50.jpg"
  },
  {
    "headName": "Juan Carlos Paz Ramírez",
    "phone": "960794347",
    "dni": "No brinda",
    "address": "A.V Cuzco,Mz 8D Lt 11 Zona Antigua",
    "sector": "Tablada de Lurín",
    "id": "980",
    "promoter": "Rossana Elena Marchinares Rojas",
    "lat": "-12.196764",
    "lng": "-76.921501",
    "photo": "https://kc.kobotoolbox.org/media/original?media_file=alvaro_escuelar%2Fattachments%2Fb489648379a248ae9a50b5b25f15d5ca%2Fb0f0f761-2bf0-4345-ba8c-e080eaea521f%2F1000209263-19_42_58.jpg"
  },
  {
    "headName": "Alejandro navarro Figueroa",
    "phone": "961457401",
    "dni": "40557495",
    "address": "Av general Vidal 410 zona nueva tablada de lurin",
    "sector": "Tablada de Lurín",
    "id": "984",
    "promoter": "RM",
    "lat": "-12.200251",
    "lng": "-76.927646",
    "photo": "https://kc.kobotoolbox.org/media/original?media_file=alvaro_escuelar%2Fattachments%2Fb489648379a248ae9a50b5b25f15d5ca%2F030e17fc-e00b-4cc1-9bd8-02dc24e244bf%2FInShot_20250430_200856771-20_9_27.jpg"
  },
  {
    "headName": "Jorge Ramirez",
    "phone": "934543987",
    "dni": "No brinda",
    "address": "Mz D1 Lt 10 Santa Rosa de las conchitas",
    "sector": "Tablada de Lurín",
    "id": "1066",
    "promoter": "Rossana Elena Marchinares Rojas",
    "lat": "-12.209027",
    "lng": "-76.923748",
    "photo": "https://kc.kobotoolbox.org/media/original?media_file=alvaro_escuelar%2Fattachments%2Fb489648379a248ae9a50b5b25f15d5ca%2F36d5a69b-f46c-4297-8bcc-a2617ba50d3d%2F1000209749-15_18_19.jpg"
  },
  {
    "headName": "Rojas Ayllon Orlinda",
    "phone": "964093087",
    "dni": "40182700",
    "address": "Pasaje las palmeras Mz158 b lote 4",
    "sector": "Jose Galvez",
    "id": "1068",
    "promoter": "Adela Silva Vega",
    "lat": "-12.223329",
    "lng": "-76.908224",
    "photo": "https://kc.kobotoolbox.org/media/original?media_file=alvaro_escuelar%2Fattachments%2Fb489648379a248ae9a50b5b25f15d5ca%2Ff2d58478-35e4-449f-ab60-0329670c436e%2FIMG_20250501_153436-15_34_54.jpg"
  },
  {
    "headName": "Danna vila",
    "phone": "914281674",
    "dni": "70527904",
    "address": "Prolongacion san martin mz 158 d lt2 - Villa Poeta",
    "sector": "Jose Galvez",
    "id": "1072",
    "promoter": "Sin asignar",
    "lat": "-12.222903",
    "lng": "-76.9093",
    "photo": "https://kc.kobotoolbox.org/media/original?media_file=alvaro_escuelar%2Fattachments%2Fb489648379a248ae9a50b5b25f15d5ca%2F90d54391-83a5-4730-babc-85d112da013a%2FIMG_20250501_154436-15_44_47.jpg"
  },
  {
    "headName": "Segundo García",
    "phone": "950022294",
    "dni": "53887881",
    "address": "Mz Z 2 Lt 4 ,Ciudad de Gosen",
    "sector": "Tablada de Lurín",
    "id": "1076",
    "promoter": "Rossana Elena Marchinares Rojas",
    "lat": "-12.20906",
    "lng": "-76.923615",
    "photo": "https://kc.kobotoolbox.org/media/original?media_file=alvaro_escuelar%2Fattachments%2Fb489648379a248ae9a50b5b25f15d5ca%2F0d6c8623-586c-4787-a54b-8e2d6c0cbbd5%2F1000209782-15_50_0.jpg"
  },
  {
    "headName": "Juan Punto Vilches",
    "phone": "969413062",
    "dni": "No brinda",
    "address": "285-223 Saenz Peña",
    "sector": "Jose Galvez",
    "id": "1077",
    "promoter": "Adela Silva Vega",
    "lat": "-12.223495",
    "lng": "-76.909587",
    "photo": ""
  },
  {
    "headName": "Narciso Marcial",
    "phone": "967712719",
    "dni": "No brinda",
    "address": "309 Saenz Peña",
    "sector": "Jose Galvez",
    "id": "1080",
    "promoter": "Adela Silva Vega",
    "lat": "-12.223452",
    "lng": "-76.909705",
    "photo": "https://kc.kobotoolbox.org/media/original?media_file=alvaro_escuelar%2Fattachments%2Fb489648379a248ae9a50b5b25f15d5ca%2F4bc98e86-668d-4ea4-a537-3caac6a34a0a%2FIMG_20250501_160433-16_4_46.jpg"
  },
  {
    "headName": "Melani buitron",
    "phone": "968607026",
    "dni": "No brinda",
    "address": "Jr saenz peña 309",
    "sector": "Jose Galvez",
    "id": "1084",
    "promoter": "Sin asignar",
    "lat": "-12.223291",
    "lng": "-76.909982",
    "photo": "https://kc.kobotoolbox.org/media/original?media_file=alvaro_escuelar%2Fattachments%2Fb489648379a248ae9a50b5b25f15d5ca%2Fd2921f62-9dbc-4c23-8260-882d7612edef%2FIMG_20250501_161747-16_18_0.jpg"
  },
  {
    "headName": "José Parada",
    "phone": "945578605",
    "dni": "No brinda",
    "address": "345 Saenz Peña",
    "sector": "Jose Galvez",
    "id": "1088",
    "promoter": "Adela Silva Vega",
    "lat": "-12.223295",
    "lng": "-76.91038",
    "photo": "https://kc.kobotoolbox.org/media/original?media_file=alvaro_escuelar%2Fattachments%2Fb489648379a248ae9a50b5b25f15d5ca%2Fdeca2400-d8d4-440f-b9bd-1fda50f03947%2FIMG_20250501_163036-16_30_47.jpg"
  },
  {
    "headName": "Nataly napán",
    "phone": "970384128",
    "dni": "71332133",
    "address": "Jr saenz peña mz 158 enlt 17",
    "sector": "Jose Galvez",
    "id": "1089",
    "promoter": "Sin asignar",
    "lat": "-12.223296",
    "lng": "-76.910498",
    "photo": "https://kc.kobotoolbox.org/media/original?media_file=alvaro_escuelar%2Fattachments%2Fb489648379a248ae9a50b5b25f15d5ca%2F05ed205d-f1ec-4bb2-8ac1-8edf3921222a%2FIMG_20250501_163052-16_31_3.jpg"
  },
  {
    "headName": "Julio Arroyo",
    "phone": "933785815",
    "dni": "No brinda",
    "address": "Mz 159 Lt 8 de octubre",
    "sector": "Jose Galvez",
    "id": "1097",
    "promoter": "Adela Silva Vega",
    "lat": "-12.2235",
    "lng": "-76.910389",
    "photo": ""
  },
  {
    "headName": "Arnaldo Casas",
    "phone": "977560195",
    "dni": "No brinda",
    "address": "Prolongación Lucanas 293",
    "sector": "Jose Galvez",
    "id": "1106",
    "promoter": "Adela Silva Vega",
    "lat": "-12.224567",
    "lng": "-76.91023",
    "photo": ""
  },
  {
    "headName": "Alfonso lagos vila",
    "phone": "916606119",
    "dni": "No brinda",
    "address": "Jr lucanas 257",
    "sector": "Jose Galvez",
    "id": "1110",
    "promoter": "Sin asignar",
    "lat": "-12.224891",
    "lng": "-76.910126",
    "photo": "https://kc.kobotoolbox.org/media/original?media_file=alvaro_escuelar%2Fattachments%2Fb489648379a248ae9a50b5b25f15d5ca%2Fe547bf33-ff07-4aca-9f6b-bb855d097b60%2FIMG_20250501_172259-17_23_20.jpg"
  },
  {
    "headName": "Wilson",
    "phone": "900610208",
    "dni": "No brinda",
    "address": "Jr lucanas Mz 161 lt12",
    "sector": "Jose Galvez",
    "id": "1130",
    "promoter": "Sin asignar",
    "lat": "-12.226016",
    "lng": "-76.909491",
    "photo": "https://kc.kobotoolbox.org/media/original?media_file=alvaro_escuelar%2Fattachments%2Fb489648379a248ae9a50b5b25f15d5ca%2F420aceb2-97d6-4834-ae28-845214bc8ebc%2FIMG_20250501_175951-18_0_21.jpg"
  },
  {
    "headName": "Yoselin Saenz Cotrina",
    "phone": "928796510",
    "dni": "71013343",
    "address": "Mz D lote 13 santa rosa las conchitas",
    "sector": "Tablada de Lurín",
    "id": "1141",
    "promoter": "RM",
    "lat": "-12.208589",
    "lng": "-76.925311",
    "photo": "https://kc.kobotoolbox.org/media/original?media_file=alvaro_escuelar%2Fattachments%2Fb489648379a248ae9a50b5b25f15d5ca%2Fef5f4a13-6255-4ee6-b757-6e9e1055fd93%2FIMG-20250501-WA0040-18_54_2.jpg"
  },
  {
    "headName": "Doris zapata Bejarano",
    "phone": "986917266",
    "dni": "29584468",
    "address": "MzL lt11 A.V.Santa rosa A.H. villa santa rosa",
    "sector": "Nuevo Milenio",
    "id": "1166",
    "promoter": "Wendy Zumaeta",
    "lat": "-12.210721",
    "lng": "-76.922111",
    "photo": "https://kc.kobotoolbox.org/media/original?media_file=alvaro_escuelar%2Fattachments%2Fb489648379a248ae9a50b5b25f15d5ca%2Fb846e513-8d3b-4299-8ce8-c05b13d6256e%2FIMG-20250502-WA0044-11_8_49.jpg"
  },
  {
    "headName": "Gimena Sanchez reynaga",
    "phone": "978853642",
    "dni": "72716834",
    "address": "MzB1 lt5 comité 11 ciudad de gosen",
    "sector": "Nuevo Milenio",
    "id": "1169",
    "promoter": "Wendy Zumaeta",
    "lat": "-12.210808",
    "lng": "-76.920337",
    "photo": "https://kc.kobotoolbox.org/media/original?media_file=alvaro_escuelar%2Fattachments%2Fb489648379a248ae9a50b5b25f15d5ca%2Ff8a23c95-4dc9-4922-bdce-8b733a57dc3c%2FIMG-20250502-WA0050-11_25_44.jpg"
  },
  {
    "headName": "Rene Ledesma fernandez",
    "phone": "926127998",
    "dni": "No brinda",
    "address": "AV Flora Tristán ,Mz N Lt 15 Tablada de Lurin",
    "sector": "Tablada de Lurín",
    "id": "1194",
    "promoter": "Rossana Elena Marchinares Rojas",
    "lat": "-12.192406",
    "lng": "-76.926248",
    "photo": "https://kc.kobotoolbox.org/media/original?media_file=alvaro_escuelar%2Fattachments%2Fb489648379a248ae9a50b5b25f15d5ca%2F58f54c2e-0555-4782-955d-225222ec6b2f%2F1000210500-13_25_18.jpg"
  },
  {
    "headName": "Rosa Eugenia Gamboa Lopez",
    "phone": "967235130",
    "dni": "8358824",
    "address": "Jr Elias Aguirre mz 10ac lt 6 - AAHH Amistad 8 de Octubre",
    "sector": "Tablada de Lurín",
    "id": "1198",
    "promoter": "Fari Eli Marín Trejo",
    "lat": "-12.18007",
    "lng": "-76.927957",
    "photo": "https://kc.kobotoolbox.org/media/original?media_file=alvaro_escuelar%2Fattachments%2Fb489648379a248ae9a50b5b25f15d5ca%2F27b91053-4911-4e01-bdfe-aa15b6be495b%2F1000139420-13_52_29.jpg"
  },
  {
    "headName": "Gino siguientes miranda",
    "phone": "950509660",
    "dni": "42025047",
    "address": "Jr Sacsayhuaman 10 ac lt 6 - AAHH Amistad 8 de Octubre",
    "sector": "Tablada de Lurín",
    "id": "1199",
    "promoter": "Fari Eli Marín Trejo",
    "lat": "-12.180072",
    "lng": "-76.928001",
    "photo": "https://kc.kobotoolbox.org/media/original?media_file=alvaro_escuelar%2Fattachments%2Fb489648379a248ae9a50b5b25f15d5ca%2Fafcc0032-2702-461a-b38c-e2056a18d1c3%2F1000139420-13_58_25.jpg"
  },
  {
    "headName": "Wenceslao Chancco córdoba",
    "phone": "951373075",
    "dni": "43059963",
    "address": "Jr Elías Aguirre mz 10 ac lt 6 B - AAHH Amistad 8 de Octubre",
    "sector": "Tablada de Lurín",
    "id": "1200",
    "promoter": "Fari Eli Marín Trejo",
    "lat": "-12.180057",
    "lng": "-76.928012",
    "photo": "https://kc.kobotoolbox.org/media/original?media_file=alvaro_escuelar%2Fattachments%2Fb489648379a248ae9a50b5b25f15d5ca%2Faa5d6286-2234-46ea-855b-d63705f9fa50%2F1000139420-14_1_16.jpg"
  },
  {
    "headName": "Jose Luis vilcapoma Borja",
    "phone": "912704542",
    "dni": "70889391",
    "address": "Jr Sacsayhuaman mz 1ac lt 6 c - AAHH Amistad 8 de Octubre",
    "sector": "Tablada de Lurín",
    "id": "1202",
    "promoter": "Fari Eli Marín Trejo",
    "lat": "-12.17994",
    "lng": "-76.928402",
    "photo": "https://kc.kobotoolbox.org/media/original?media_file=alvaro_escuelar%2Fattachments%2Fb489648379a248ae9a50b5b25f15d5ca%2Fce7a2b89-7e47-4579-b4da-05b822e81ed9%2F1000139420-14_5_13.jpg"
  },
  {
    "headName": "Maria angélica Arango miranda",
    "phone": "992450516",
    "dni": "41168699",
    "address": "Jr Sacsayhuaman mz 10ac lt6 d - AAHH Amistad 8 de Octubre",
    "sector": "Tablada de Lurín",
    "id": "1204",
    "promoter": "Fari Eli Marín Trejo",
    "lat": "-12.180029",
    "lng": "-76.927942",
    "photo": "https://kc.kobotoolbox.org/media/original?media_file=alvaro_escuelar%2Fattachments%2Fb489648379a248ae9a50b5b25f15d5ca%2F8e9580f3-4c5e-4ec5-8a0a-e414f5c48197%2F1000139420-14_21_24.jpg"
  },
  {
    "headName": "Mairiuxi chilette",
    "phone": "969677779",
    "dni": "No brinda",
    "address": "Jr mariscal caceres 152",
    "sector": "Jose Galvez",
    "id": "1361",
    "promoter": "Sin asignar",
    "lat": "-12.220516",
    "lng": "-76.908799",
    "photo": "https://kc.kobotoolbox.org/media/original?media_file=alvaro_escuelar%2Fattachments%2Fb489648379a248ae9a50b5b25f15d5ca%2F03ddabe1-c863-4e9d-a647-05fa7b608dbe%2FIMG_20250503_151248-15_13_21.jpg"
  },
  {
    "headName": "Martin rodriguez",
    "phone": "997335947",
    "dni": "No brinda",
    "address": "Jr chilca 270",
    "sector": "Jose Galvez",
    "id": "1369",
    "promoter": "Carmen Lourdes Hernandez Quispe",
    "lat": "-12.219259",
    "lng": "-76.90936",
    "photo": "https://kc.kobotoolbox.org/media/original?media_file=alvaro_escuelar%2Fattachments%2Fb489648379a248ae9a50b5b25f15d5ca%2F1347f550-e35d-4fa9-8e86-c958aa79b785%2FIMG_20250503_153644-15_37_30.jpg"
  },
  {
    "headName": "Sánchez Caseres Salita",
    "phone": "977670671",
    "dni": "No brinda",
    "address": "Jirón Chilca 340",
    "sector": "Jose Galvez",
    "id": "1370",
    "promoter": "Adela Silva Vega",
    "lat": "-12.21992",
    "lng": "-76.909658",
    "photo": "https://kc.kobotoolbox.org/media/original?media_file=alvaro_escuelar%2Fattachments%2Fb489648379a248ae9a50b5b25f15d5ca%2F94d8f340-1514-47a1-bfce-dfc31bc8f4de%2FIMG_20250503_154033-15_40_42.jpg"
  },
  {
    "headName": "Álvaro Salazar",
    "phone": "990140887",
    "dni": "No brinda",
    "address": "Av Daniel Alsides Carreon.",
    "sector": "Jose Galvez",
    "id": "1380",
    "promoter": "Adela Silva Vega",
    "lat": "-12.217562",
    "lng": "-76.909109",
    "photo": "https://kc.kobotoolbox.org/media/original?media_file=alvaro_escuelar%2Fattachments%2Fb489648379a248ae9a50b5b25f15d5ca%2F4a444de1-69d8-4e19-8f30-94e748d9cf77%2FIMG_20250503_161249-16_13_5.jpg"
  },
  {
    "headName": "Jesus huaringa",
    "phone": "995783227",
    "dni": "No brinda",
    "address": "Daniel Alcides carrion mz 136 lt8a - Villa poeta",
    "sector": "Jose Galvez",
    "id": "1385",
    "promoter": "Carmen Lourdes Hernandez Quispe",
    "lat": "-12.215776",
    "lng": "-76.908844",
    "photo": "https://kc.kobotoolbox.org/media/original?media_file=alvaro_escuelar%2Fattachments%2Fb489648379a248ae9a50b5b25f15d5ca%2F64b6b4d9-8217-48cd-beba-fa4d53b83a1d%2FIMG_20250503_164618-16_46_42.jpg"
  },
  {
    "headName": "Vanesa febres",
    "phone": "902510778",
    "dni": "47012595",
    "address": "Av daniel A Carrion 1069 - villa poeta",
    "sector": "Jose Galvez",
    "id": "1387",
    "promoter": "Carmen Lourdes Hernandez Quispe",
    "lat": "-12.213747",
    "lng": "-76.908339",
    "photo": "https://kc.kobotoolbox.org/media/original?media_file=alvaro_escuelar%2Fattachments%2Fb489648379a248ae9a50b5b25f15d5ca%2F3fb753a0-0912-46a2-9450-d5e83f882c63%2FIMG_20250503_165835-16_58_50.jpg"
  },
  {
    "headName": "Mariel Cabana",
    "phone": "986315807",
    "dni": "72299215",
    "address": "mz J lt 10 - AAHH Amistad 8 de Octubre",
    "sector": "Tablada de Lurín",
    "id": "1426",
    "promoter": "Fari Eli Marín Trejo",
    "lat": "-12.178949",
    "lng": "-76.930245",
    "photo": ""
  },
  {
    "headName": "Carmen oroncuy",
    "phone": "923475573",
    "dni": "No brinda",
    "address": "Jr cesar Vallejo 225",
    "sector": "Inca Pachacutec",
    "id": "1530",
    "promoter": "Lourdes Maldonado",
    "lat": "-12.179698",
    "lng": "-76.946046",
    "photo": "https://kc.kobotoolbox.org/media/original?media_file=alvaro_escuelar%2Fattachments%2Fb489648379a248ae9a50b5b25f15d5ca%2F22e5d1ef-12a7-47ea-aa06-94493f3aae26%2FIMG_20250506_084544955-8_46_22.jpg"
  },
  {
    "headName": "Juana huillca",
    "phone": "900607279",
    "dni": "No brinda",
    "address": "Calle Elias Aguirre 209",
    "sector": "Inca Pachacutec",
    "id": "1532",
    "promoter": "Lourdes Maldonado",
    "lat": "-12.18047",
    "lng": "-76.945363",
    "photo": "https://kc.kobotoolbox.org/media/original?media_file=alvaro_escuelar%2Fattachments%2Fb489648379a248ae9a50b5b25f15d5ca%2F8375e49b-9026-42e7-9fbd-4430f7662d27%2FIMG_20250506_090144575-9_2_42.jpg"
  },
  {
    "headName": "Cecilia ojeda",
    "phone": "954680164",
    "dni": "10090587",
    "address": "Calle Elias Aguirre 213",
    "sector": "Inca Pachacutec",
    "id": "1534",
    "promoter": "Lourdes Maldonado",
    "lat": "-12.180376",
    "lng": "-76.945099",
    "photo": "https://kc.kobotoolbox.org/media/original?media_file=alvaro_escuelar%2Fattachments%2Fb489648379a248ae9a50b5b25f15d5ca%2F0ccac363-e5d0-493b-a59e-66b2812b5c57%2FIMG_20250506_091102847-9_11_16.jpg"
  },
  {
    "headName": "Juliana Quirós Serna",
    "phone": "922330655",
    "dni": "9285746",
    "address": "MzF 4 lt1 calle santa María ciudad de Gosen",
    "sector": "Nuevo Milenio",
    "id": "1535",
    "promoter": "Wendy Zumaeta",
    "lat": "-12.210939",
    "lng": "-76.918627",
    "photo": "https://kc.kobotoolbox.org/media/original?media_file=alvaro_escuelar%2Fattachments%2Fb489648379a248ae9a50b5b25f15d5ca%2Fc0d87648-4f33-4358-8fab-9945425a5fe4%2FIMG-20250506-WA0059-9_18_12.jpg"
  },
  {
    "headName": "Diego cordova",
    "phone": "906159662",
    "dni": "No brinda",
    "address": "calle Antonio Raymondi 324",
    "sector": "Inca Pachacutec",
    "id": "1536",
    "promoter": "Lourdes Maldonado",
    "lat": "-12.180563",
    "lng": "-76.94505",
    "photo": "https://kc.kobotoolbox.org/media/original?media_file=alvaro_escuelar%2Fattachments%2Fb489648379a248ae9a50b5b25f15d5ca%2F8cabdf95-2ecc-48ee-aa1c-5c4dc54be6c7%2FIMG_20250506_091930460-9_20_44.jpg"
  },
  {
    "headName": "Susana chapoñan",
    "phone": "991593109",
    "dni": "No brinda",
    "address": "Calle Antonio Raymondi 323",
    "sector": "Inca Pachacutec",
    "id": "1539",
    "promoter": "Lourdes Maldonado",
    "lat": "-12.180652",
    "lng": "-76.944935",
    "photo": "https://kc.kobotoolbox.org/media/original?media_file=alvaro_escuelar%2Fattachments%2Fb489648379a248ae9a50b5b25f15d5ca%2F280a2cfa-06aa-4570-af6a-d76cdc844863%2FIMG_20250506_092343924-9_27_27.jpg"
  },
  {
    "headName": "Agustín panebra soto",
    "phone": "921709025",
    "dni": "No brinda",
    "address": "MzD lt1 pasaje san Marcos ciudad de dosen comité 15",
    "sector": "Nuevo Milenio",
    "id": "1542",
    "promoter": "Wendy Zumaeta",
    "lat": "-12.210258",
    "lng": "-76.919295",
    "photo": "https://kc.kobotoolbox.org/media/original?media_file=alvaro_escuelar%2Fattachments%2Fb489648379a248ae9a50b5b25f15d5ca%2F0cb0202d-7f80-4410-a661-69c614cc7d89%2FIMG-20250506-WA0062-9_41_58.jpg"
  },
  {
    "headName": "Carmen arce",
    "phone": "910870269",
    "dni": "No brinda",
    "address": "calle Elias Aguirre 323",
    "sector": "Inca Pachacutec",
    "id": "1544",
    "promoter": "Lourdes Maldonado",
    "lat": "-12.180653",
    "lng": "-76.944931",
    "photo": ""
  },
  {
    "headName": "Grifo evelin chinchihuara luna",
    "phone": "904480313",
    "dni": "76298714",
    "address": "Mz C lt1 s pasaje san Gabriel ciudad de gosen",
    "sector": "Nuevo Milenio",
    "id": "1551",
    "promoter": "Wendy Zumaeta",
    "lat": "-12.209917",
    "lng": "-76.91947",
    "photo": "https://kc.kobotoolbox.org/media/original?media_file=alvaro_escuelar%2Fattachments%2Fb489648379a248ae9a50b5b25f15d5ca%2Fdecc6627-0823-4781-9fb9-1a8b601825be%2FIMG-20250506-WA0065-9_53_56.jpg"
  },
  {
    "headName": "Silvia García",
    "phone": "964164645",
    "dni": "No brinda",
    "address": "Calle Antonio Raymondi 190",
    "sector": "Inca Pachacutec",
    "id": "1559",
    "promoter": "Lourdes Maldonado",
    "lat": "-12.180229",
    "lng": "-76.945287",
    "photo": "https://kc.kobotoolbox.org/media/original?media_file=alvaro_escuelar%2Fattachments%2Fb489648379a248ae9a50b5b25f15d5ca%2F72fe4d8f-6475-40d9-b269-2647ac8c36ca%2FIMG_20250506_095934329-10_1_21.jpg"
  },
  {
    "headName": "Maria luna consuelo",
    "phone": "946802952",
    "dni": "32956059",
    "address": "MzS 3 lt5 pasaje san Martín comité 15 cuidad de gosen",
    "sector": "Nuevo Milenio",
    "id": "1560",
    "promoter": "Wendy Zumaeta",
    "lat": "-12.209933",
    "lng": "-76.91995",
    "photo": "https://kc.kobotoolbox.org/media/original?media_file=alvaro_escuelar%2Fattachments%2Fb489648379a248ae9a50b5b25f15d5ca%2F78fdffdd-1110-4fd6-b890-9ec2efad0b68%2FIMG-20250506-WA0069-10_9_5.jpg"
  },
  {
    "headName": "Manuel Alvarado Nora buena",
    "phone": "946802952",
    "dni": "No brinda",
    "address": "MzB 4 lt4 pasaje san Gabriel comité 15 ciudad de gosen",
    "sector": "Nuevo Milenio",
    "id": "1563",
    "promoter": "Wendy Zumaeta",
    "lat": "-12.209758",
    "lng": "-76.919884",
    "photo": "https://kc.kobotoolbox.org/media/original?media_file=alvaro_escuelar%2Fattachments%2Fb489648379a248ae9a50b5b25f15d5ca%2F90d852c4-d0bc-4f65-b1fd-f2e4111f2597%2FIMG-20250506-WA0071-10_14_1.jpg"
  },
  {
    "headName": "Miguel cancer",
    "phone": "981038057",
    "dni": "No brinda",
    "address": "Av los incas 723",
    "sector": "Tablada de Lurín",
    "id": "1564",
    "promoter": "Rossana Elena Marchinares Rojas",
    "lat": "-12.182118",
    "lng": "-76.925585",
    "photo": "https://kc.kobotoolbox.org/media/original?media_file=alvaro_escuelar%2Fattachments%2Fb489648379a248ae9a50b5b25f15d5ca%2F6b5f12dd-7120-48b2-bd5c-3373777603ca%2F1000213191-10_13_15.jpg"
  },
  {
    "headName": "Nancy iturrizaga casas",
    "phone": "922861945",
    "dni": "16309174",
    "address": "MzT4 lt2 pasaje san Miguel comité 15 ciudad de gosen",
    "sector": "Nuevo Milenio",
    "id": "1574",
    "promoter": "Wendy Zumaeta",
    "lat": "-12.208841",
    "lng": "-76.9207",
    "photo": "https://kc.kobotoolbox.org/media/original?media_file=alvaro_escuelar%2Fattachments%2Fb489648379a248ae9a50b5b25f15d5ca%2Fd3460011-0154-4714-b9cc-a25bcfabc1dc%2FIMG-20250506-WA0075-10_28_32.jpg"
  },
  {
    "headName": "Lino nuñez",
    "phone": "914848810",
    "dni": "No brinda",
    "address": "Jr Cesar vallejo 233",
    "sector": "Inca Pachacutec",
    "id": "1576",
    "promoter": "Lourdes Maldonado",
    "lat": "-12.179415",
    "lng": "-76.946067",
    "photo": "https://kc.kobotoolbox.org/media/original?media_file=alvaro_escuelar%2Fattachments%2Fb489648379a248ae9a50b5b25f15d5ca%2F1592c059-692e-4d82-8a9a-455bfda3a70b%2FIMG_20250506_102730470-10_28_53.jpg"
  },
  {
    "headName": "Arelis perez",
    "phone": "968528890",
    "dni": "No brinda",
    "address": "Jr Cesar Vallejo 286",
    "sector": "Inca Pachacutec",
    "id": "1582",
    "promoter": "Lourdes Maldonado",
    "lat": "-12.179681",
    "lng": "-76.946082",
    "photo": "https://kc.kobotoolbox.org/media/original?media_file=alvaro_escuelar%2Fattachments%2Fb489648379a248ae9a50b5b25f15d5ca%2Fd1d62c05-0051-4f72-9005-9abbe6954cb3%2FIMG_20250506_103654820-10_42_33.jpg"
  },
  {
    "headName": "Liz rivera",
    "phone": "907558731",
    "dni": "No brinda",
    "address": "Jr Cesar vallejo 220",
    "sector": "Inca Pachacutec",
    "id": "1585",
    "promoter": "Lourdes Maldonado",
    "lat": "-12.17967",
    "lng": "-76.946033",
    "photo": "https://kc.kobotoolbox.org/media/original?media_file=alvaro_escuelar%2Fattachments%2Fb489648379a248ae9a50b5b25f15d5ca%2Feb697d3e-a3b9-4406-977f-5f388de1416f%2FIMG_20250506_104757083_HDR-10_51_2.jpg"
  },
  {
    "headName": "Carlos orocuy",
    "phone": "947237919",
    "dni": "No brinda",
    "address": "Jr Cesar vallejo 212",
    "sector": "Inca Pachacutec",
    "id": "1588",
    "promoter": "Lourdes Maldonado",
    "lat": "-12.179654",
    "lng": "-76.946024",
    "photo": "https://kc.kobotoolbox.org/media/original?media_file=alvaro_escuelar%2Fattachments%2Fb489648379a248ae9a50b5b25f15d5ca%2F0e6cd18e-39c2-47b3-ba31-58655aaa9910%2FIMG_20250506_105443369-10_55_9.jpg"
  },
  {
    "headName": "Yessenia conde",
    "phone": "986823013",
    "dni": "No brinda",
    "address": "Jr Cesar vallejo 215",
    "sector": "Inca Pachacutec",
    "id": "1592",
    "promoter": "Lourdes Maldonado",
    "lat": "-12.179672",
    "lng": "-76.946067",
    "photo": "https://kc.kobotoolbox.org/media/original?media_file=alvaro_escuelar%2Fattachments%2Fb489648379a248ae9a50b5b25f15d5ca%2F5cf8039a-5453-472e-adc2-c14d074b4b92%2FIMG_20250506_110250561-11_3_14.jpg"
  },
  {
    "headName": "Maria salvador Gonzalez",
    "phone": "999944037",
    "dni": "41062385",
    "address": "MzH lt13 pasaje santa lucía ciudad de gosen ampliación",
    "sector": "Nuevo Milenio",
    "id": "1593",
    "promoter": "Wendy Zumaeta",
    "lat": "-12.208565",
    "lng": "-76.920404",
    "photo": "https://kc.kobotoolbox.org/media/original?media_file=alvaro_escuelar%2Fattachments%2Fb489648379a248ae9a50b5b25f15d5ca%2F8d7c6d0a-aced-476e-8d9d-f21db046f00b%2FIMG-20250506-WA0091-11_6_24.jpg"
  },
  {
    "headName": "Armando corzo",
    "phone": "944130658",
    "dni": "No brinda",
    "address": "Jr Cesar Vallejo 225",
    "sector": "Inca Pachacutec",
    "id": "1594",
    "promoter": "Lourdes Maldonado",
    "lat": "-12.17955",
    "lng": "-76.946138",
    "photo": "https://kc.kobotoolbox.org/media/original?media_file=alvaro_escuelar%2Fattachments%2Fb489648379a248ae9a50b5b25f15d5ca%2F70c479ef-4634-4e49-9df2-9a13227d11d9%2FIMG_20250506_110546814-11_6_21.jpg"
  },
  {
    "headName": "Laura parco",
    "phone": "965092291",
    "dni": "41468788",
    "address": "Av los incas zona nueva tablada de Lurin s/n",
    "sector": "Tablada de Lurín",
    "id": "1603",
    "promoter": "RM",
    "lat": "-12.180157",
    "lng": "-76.928018",
    "photo": "https://kc.kobotoolbox.org/media/original?media_file=alvaro_escuelar%2Fattachments%2Fb489648379a248ae9a50b5b25f15d5ca%2Fc657480b-448b-47c5-8e9b-28ec81115332%2F1000006922-11_31_45.jpg"
  },
  {
    "headName": "Mario Colmenares",
    "phone": "956604198",
    "dni": "No brinda",
    "address": "Jr chanchan 600mz17zlote 12comite 37tablafa",
    "sector": "Tablada de Lurín",
    "id": "1615",
    "promoter": "Rossana Elena Marchinares Rojas",
    "lat": "-12.181569",
    "lng": "-76.926776",
    "photo": "https://kc.kobotoolbox.org/media/original?media_file=alvaro_escuelar%2Fattachments%2Fb489648379a248ae9a50b5b25f15d5ca%2F5eddfc2f-a4c6-4481-9a14-2245bd48f49a%2F1000213313-11_53_3.jpg"
  },
  {
    "headName": "Henry cotrina",
    "phone": "907676295",
    "dni": "42689673",
    "address": "Girón inca roca zona nueva tablada de Lurin s/n",
    "sector": "Tablada de Lurín",
    "id": "1630",
    "promoter": "RM",
    "lat": "-12.181549",
    "lng": "-76.926721",
    "photo": "https://kc.kobotoolbox.org/media/original?media_file=alvaro_escuelar%2Fattachments%2Fb489648379a248ae9a50b5b25f15d5ca%2F7195d50c-1fdb-40d9-ad44-17115617f531%2F1000007121-12_35_41.jpg"
  },
  {
    "headName": "Isabel Saavedra",
    "phone": "918614260",
    "dni": "No brinda",
    "address": "Jr Hipólito Unanue Mz 1s lote 11 tablada de lurin",
    "sector": "Tablada de Lurín",
    "id": "1631",
    "promoter": "Rossana Elena Marchinares Rojas",
    "lat": "-12.190645",
    "lng": "-76.931133",
    "photo": "https://kc.kobotoolbox.org/media/original?media_file=alvaro_escuelar%2Fattachments%2Fb489648379a248ae9a50b5b25f15d5ca%2Fc0f310f6-2318-41df-bca3-cfd2b150c243%2F1000213350-12_40_8.jpg"
  },
  {
    "headName": "Gloria Astocondor Vilcapoma",
    "phone": "950761263",
    "dni": "No brinda",
    "address": "Bartolo lome Herrera mz s lote 11 comité 28 tablada de lurin",
    "sector": "Tablada de Lurín",
    "id": "1632",
    "promoter": "Rossana Elena Marchinares Rojas",
    "lat": "-12.190784",
    "lng": "-76.931419",
    "photo": "https://kc.kobotoolbox.org/media/original?media_file=alvaro_escuelar%2Fattachments%2Fb489648379a248ae9a50b5b25f15d5ca%2F64da8852-eb6b-4327-9d42-fade3821086d%2F1000213362-12_53_8.jpg"
  },
  {
    "headName": "Rubén soto",
    "phone": "972394636",
    "dni": "No brinda",
    "address": "Jr Inca pachacutec 616",
    "sector": "Tablada de Lurín",
    "id": "1819",
    "promoter": "Rossana Elena Marchinares Rojas",
    "lat": "-12.189656",
    "lng": "-76.927654",
    "photo": "https://kc.kobotoolbox.org/media/original?media_file=alvaro_escuelar%2Fattachments%2Fb489648379a248ae9a50b5b25f15d5ca%2F0df4d3fc-8f63-4a28-af40-2422e1aa9452%2F1000215230-8_53_36.jpg"
  },
  {
    "headName": "Marcela chauca",
    "phone": "931160170",
    "dni": "No brinda",
    "address": "Calle Antonio Raymondi 208",
    "sector": "Inca Pachacutec",
    "id": "1822",
    "promoter": "Lourdes Maldonado",
    "lat": "-12.179402",
    "lng": "-76.945653",
    "photo": "https://kc.kobotoolbox.org/media/original?media_file=alvaro_escuelar%2Fattachments%2Fb489648379a248ae9a50b5b25f15d5ca%2Fd77c1955-52b2-4b18-9668-8f1b7df04061%2FIMG_20250508_090322016-9_10_11.jpg"
  },
  {
    "headName": "Angello iozelli",
    "phone": "922872046",
    "dni": "No brinda",
    "address": "calle Antonio Raymondi 191",
    "sector": "Inca Pachacutec",
    "id": "1825",
    "promoter": "Lourdes Maldonado",
    "lat": "-12.179208",
    "lng": "-76.945805",
    "photo": "https://kc.kobotoolbox.org/media/original?media_file=alvaro_escuelar%2Fattachments%2Fb489648379a248ae9a50b5b25f15d5ca%2F5c71a2ea-0db5-4271-a192-cd297c658c62%2FIMG_20250508_091842986-9_19_23.jpg"
  },
  {
    "headName": "Graciela paredes",
    "phone": "997195629",
    "dni": "No brinda",
    "address": "Mz5q lote 13",
    "sector": "Tablada de Lurín",
    "id": "1826",
    "promoter": "Rossana Elena Marchinares Rojas",
    "lat": "-12.189908",
    "lng": "-76.928125",
    "photo": "https://kc.kobotoolbox.org/media/original?media_file=alvaro_escuelar%2Fattachments%2Fb489648379a248ae9a50b5b25f15d5ca%2F4645c857-fdb0-4536-8636-b269363def32%2F1000215277-9_23_25.jpg"
  },
  {
    "headName": "Sergio guzman",
    "phone": "995445863",
    "dni": "No brinda",
    "address": "calle Santos chocano 262",
    "sector": "Inca Pachacutec",
    "id": "1828",
    "promoter": "Lourdes Maldonado",
    "lat": "-12.179555",
    "lng": "-76.946214",
    "photo": "https://kc.kobotoolbox.org/media/original?media_file=alvaro_escuelar%2Fattachments%2Fb489648379a248ae9a50b5b25f15d5ca%2F9956a967-35de-4c38-87bd-5462d1dadfed%2FIMG_20250508_093304249_HDR-9_35_50.jpg"
  },
  {
    "headName": "Mercedes condori",
    "phone": "955768383",
    "dni": "No brinda",
    "address": "Calle rosa merino 399",
    "sector": "Inca Pachacutec",
    "id": "1832",
    "promoter": "Lourdes Maldonado",
    "lat": "-12.180489",
    "lng": "-76.947146",
    "photo": "https://kc.kobotoolbox.org/media/original?media_file=alvaro_escuelar%2Fattachments%2Fb489648379a248ae9a50b5b25f15d5ca%2F687a51ae-ac59-48c5-9dd1-4208065132d3%2FIMG_20250508_104054978-10_48_38.jpg"
  },
  {
    "headName": "Sonia hurtado",
    "phone": "916599772",
    "dni": "No brinda",
    "address": "Calle Ciro alegría 270",
    "sector": "Inca Pachacutec",
    "id": "1834",
    "promoter": "Lourdes Maldonado",
    "lat": "-12.179321",
    "lng": "-76.94566",
    "photo": "https://kc.kobotoolbox.org/media/original?media_file=alvaro_escuelar%2Fattachments%2Fb489648379a248ae9a50b5b25f15d5ca%2F2e7a0bdf-344f-4855-971a-7336c066fb6e%2FIMG_20250508_100124262-10_56_18.jpg"
  },
  {
    "headName": "Elvira neciosup",
    "phone": "975531131",
    "dni": "No brinda",
    "address": "Pasaje interno 7 de junio s/n",
    "sector": "Inca Pachacutec",
    "id": "1838",
    "promoter": "Lourdes Maldonado",
    "lat": "-12.17931",
    "lng": "-76.945661",
    "photo": "https://kc.kobotoolbox.org/media/original?media_file=alvaro_escuelar%2Fattachments%2Fb489648379a248ae9a50b5b25f15d5ca%2Fd16d6dc4-e7d0-461a-b50b-42d6b51b5159%2FIMG_20250508_092502961-11_15_42.jpg"
  },
  {
    "headName": "Ernesto Maldonado",
    "phone": "942904510",
    "dni": "No brinda",
    "address": "calle Rosa merino 232",
    "sector": "Inca Pachacutec",
    "id": "1852",
    "promoter": "Lourdes Maldonado",
    "lat": "-12.179366",
    "lng": "-76.949444",
    "photo": "https://kc.kobotoolbox.org/media/original?media_file=alvaro_escuelar%2Fattachments%2Fb489648379a248ae9a50b5b25f15d5ca%2F37e2f9f9-bd39-4325-ac49-0ad46389fdbe%2FIMG_20250508_100512299-17_22_37.jpg"
  },
  {
    "headName": "Alex Vázquez Ruiz",
    "phone": "922945560",
    "dni": "93931427",
    "address": "Mz B lt 4A - AAHH Amistad 8 de Octubre",
    "sector": "Tablada de Lurín",
    "id": "1853",
    "promoter": "Fari Eli Marín Trejo",
    "lat": "-12.179774",
    "lng": "-76.928534",
    "photo": "https://kc.kobotoolbox.org/media/original?media_file=alvaro_escuelar%2Fattachments%2Fb489648379a248ae9a50b5b25f15d5ca%2Ffff8ced0-fb0d-4992-9d59-73f75f876a0a%2F1000146210-17_37_19.jpg"
  },
  {
    "headName": "Jean Carlos Vásquez Ruiz",
    "phone": "960939660",
    "dni": "76677792",
    "address": "mz B lt 4B - AAHH Amistad 8 de Octubre",
    "sector": "Tablada de Lurín",
    "id": "1854",
    "promoter": "Fari Eli Marín Trejo",
    "lat": "-12.17977",
    "lng": "-76.928519",
    "photo": "https://kc.kobotoolbox.org/media/original?media_file=alvaro_escuelar%2Fattachments%2Fb489648379a248ae9a50b5b25f15d5ca%2Ff8c92b21-8eb3-4ff7-93e4-14275a01bb74%2F1000146210-17_40_45.jpg"
  },
  {
    "headName": "Vivíana vilchez Fachin",
    "phone": "922945560",
    "dni": "77542564",
    "address": "mz B lt 4C - AAHH Amistad 8 de Octubre",
    "sector": "Tablada de Lurín",
    "id": "1855",
    "promoter": "Fari Eli Marín Trejo",
    "lat": "-12.179878",
    "lng": "-76.928502",
    "photo": "https://kc.kobotoolbox.org/media/original?media_file=alvaro_escuelar%2Fattachments%2Fb489648379a248ae9a50b5b25f15d5ca%2Fa50371cb-26e8-402c-b4ea-8e347b53aed8%2F1000146210-17_43_54.jpg"
  },
  {
    "headName": "Jancinto Concha Ramirez",
    "phone": "959114781",
    "dni": "9856537",
    "address": "Jr.inca pachacutec m z 6q lote15b",
    "sector": "Tablada de Lurín",
    "id": "1890",
    "promoter": "Rossana Elena Marchinares Rojas",
    "lat": "-12.189362",
    "lng": "-76.92707",
    "photo": "https://kc.kobotoolbox.org/media/original?media_file=alvaro_escuelar%2Fattachments%2Fb489648379a248ae9a50b5b25f15d5ca%2Ff53d92e8-b093-475f-8ba4-6e25853716a0%2F1000216398-11_15_30.jpg"
  },
  {
    "headName": "Gloria bonilla Villegas",
    "phone": "926126259",
    "dni": "No brinda",
    "address": "Av manco capc Mz q lote 3 zona Nueva tablada de lurin",
    "sector": "Tablada de Lurín",
    "id": "1901",
    "promoter": "Rossana Elena Marchinares Rojas",
    "lat": "-12.189447",
    "lng": "-76.92724",
    "photo": "https://kc.kobotoolbox.org/media/original?media_file=alvaro_escuelar%2Fattachments%2Fb489648379a248ae9a50b5b25f15d5ca%2F02185987-81a4-41f9-bfc9-c44ea660c65a%2F1000216416-11_47_38.jpg"
  },
  {
    "headName": "Ana soto Falcón",
    "phone": "941141985",
    "dni": "No brinda",
    "address": "Av.manco capac Mz 3 p lote 11 zona Nueva tablada de lurin",
    "sector": "Tablada de Lurín",
    "id": "1910",
    "promoter": "Rossana Elena Marchinares Rojas",
    "lat": "-12.191218",
    "lng": "-76.929484",
    "photo": "https://kc.kobotoolbox.org/media/original?media_file=alvaro_escuelar%2Fattachments%2Fb489648379a248ae9a50b5b25f15d5ca%2F602dc2d4-0ba4-4d27-a957-8fd3a95a99ce%2F1000216423-12_13_20.jpg"
  },
  {
    "headName": "Esther camacho",
    "phone": "998536307",
    "dni": "No brinda",
    "address": "Jr tupayupanqui Mz 4 w lote10",
    "sector": "Tablada de Lurín",
    "id": "1935",
    "promoter": "Rossana Elena Marchinares Rojas",
    "lat": "-12.188301",
    "lng": "-76.933468",
    "photo": "https://kc.kobotoolbox.org/media/original?media_file=alvaro_escuelar%2Fattachments%2Fb489648379a248ae9a50b5b25f15d5ca%2F817cdcf7-e614-4d76-bd73-18a7c11838bb%2F1000216488-13_28_27.jpg"
  },
  {
    "headName": "María ramos",
    "phone": "912298592",
    "dni": "No brinda",
    "address": "Av. Bolívar ,Mz 3 u lote 1 a",
    "sector": "Tablada de Lurín",
    "id": "1940",
    "promoter": "Rossana Elena Marchinares Rojas",
    "lat": "-12.189566",
    "lng": "-76.934327",
    "photo": "https://kc.kobotoolbox.org/media/original?media_file=alvaro_escuelar%2Fattachments%2Fb489648379a248ae9a50b5b25f15d5ca%2F68e33785-64ea-4784-be91-4fd09d8d10bf%2F1000216489-13_40_20.jpg"
  },
  {
    "headName": "Roxana Vanesa portal",
    "phone": "993226162",
    "dni": "60720799",
    "address": "Girón el sol 700mz t6 lote 8tablada de Lurin zona nueva",
    "sector": "Tablada de Lurín",
    "id": "1966",
    "promoter": "RM",
    "lat": "-12.186999",
    "lng": "-76.926705",
    "photo": "https://kc.kobotoolbox.org/media/original?media_file=alvaro_escuelar%2Fattachments%2Fb489648379a248ae9a50b5b25f15d5ca%2F7542c13e-9478-4f53-baa9-79f26e8759c4%2F1000012202-16_36_30.jpg"
  },
  {
    "headName": "José puente Aguirre",
    "phone": "984442455",
    "dni": "44199396",
    "address": "Calle Alfonso ugarte 622 zona nueva tablada dlurin",
    "sector": "Tablada de Lurín",
    "id": "1975",
    "promoter": "RM",
    "lat": "-12.186141",
    "lng": "-76.926743",
    "photo": "https://kc.kobotoolbox.org/media/original?media_file=alvaro_escuelar%2Fattachments%2Fb489648379a248ae9a50b5b25f15d5ca%2F7a9fc1cc-6a0e-42f2-aabc-493521f2128c%2F1000012261-17_4_30.jpg"
  },
  {
    "headName": "Damiana Velasquez",
    "phone": "980434850",
    "dni": "No brinda",
    "address": "Av Mateo pumacahua Bernardo A.",
    "sector": "Inca Pachacutec",
    "id": "2015",
    "promoter": "Lourdes Maldonado",
    "lat": "-12.179387",
    "lng": "-76.945677",
    "photo": "https://kc.kobotoolbox.org/media/original?media_file=alvaro_escuelar%2Fattachments%2Fb489648379a248ae9a50b5b25f15d5ca%2F8b4d39c3-8713-4a70-9b56-5b2412e49c2d%2FIMG_20250510_090314133-9_39_42.jpg"
  },
  {
    "headName": "concordia Iquise",
    "phone": "943395129",
    "dni": "No brinda",
    "address": "Av Elias Aguirre 353",
    "sector": "Inca Pachacutec",
    "id": "2033",
    "promoter": "Lourdes Maldonado",
    "lat": "-12.179333",
    "lng": "-76.945665",
    "photo": "https://kc.kobotoolbox.org/media/original?media_file=alvaro_escuelar%2Fattachments%2Fb489648379a248ae9a50b5b25f15d5ca%2Fb8a7a7f4-6c96-486f-b46c-dc7e248b28bd%2FIMG_20250510_093109132-10_11_30.jpg"
  },
  {
    "headName": "Johan Gavilán",
    "phone": "910529868",
    "dni": "No brinda",
    "address": "Sector, asentamiento 10 de octubre",
    "sector": "Jose Galvez",
    "id": "2066",
    "promoter": "Adela Silva Vega",
    "lat": "-12.22156",
    "lng": "-76.902463",
    "photo": "https://kc.kobotoolbox.org/media/original?media_file=alvaro_escuelar%2Fattachments%2Fb489648379a248ae9a50b5b25f15d5ca%2F2638289d-4370-4045-9810-5f073f64da2e%2FIMG_20250510_113411-11_34_46.jpg"
  },
  {
    "headName": "A derson Roman",
    "phone": "975259643",
    "dni": "No brinda",
    "address": "Mariscala 400",
    "sector": "Tablada de Lurín",
    "id": "2131",
    "promoter": "Rossana Elena Marchinares Rojas",
    "lat": "-12.194131",
    "lng": "-76.928931",
    "photo": "https://kc.kobotoolbox.org/media/original?media_file=alvaro_escuelar%2Fattachments%2Fb489648379a248ae9a50b5b25f15d5ca%2F3d8bcc75-4eab-4ba7-8051-4f3403dfa4d9%2F1000217543-13_46_41.jpg"
  },
  {
    "headName": "Perpetua villa Zapata",
    "phone": "912586800",
    "dni": "No brinda",
    "address": "Jr Mariscala. Mz 4L lote 15 Tablada de lurin",
    "sector": "Tablada de Lurín",
    "id": "2132",
    "promoter": "Rossana Elena Marchinares Rojas",
    "lat": "-12.194241",
    "lng": "-76.928092",
    "photo": "https://kc.kobotoolbox.org/media/original?media_file=alvaro_escuelar%2Fattachments%2Fb489648379a248ae9a50b5b25f15d5ca%2F746b7d67-fb70-4de4-986b-bc706ba1c423%2F1000217545-13_56_38.jpg"
  },
  {
    "headName": "Teresa pinedo Palacios",
    "phone": "923662494",
    "dni": "No brinda",
    "address": "Mz 9m lite 3;comité 23 Jr Grau tablada de lurin.z/n",
    "sector": "Tablada de Lurín",
    "id": "2177",
    "promoter": "Rossana Elena Marchinares Rojas",
    "lat": "-12.189127",
    "lng": "-76.920984",
    "photo": "https://kc.kobotoolbox.org/media/original?media_file=alvaro_escuelar%2Fattachments%2Fb489648379a248ae9a50b5b25f15d5ca%2Fe4172b10-95a7-450c-b98e-319d9ad53f3d%2F1000218193-11_50_1.jpg"
  },
  {
    "headName": "Julio escobar",
    "phone": "952580851",
    "dni": "No brinda",
    "address": "Av .la mar mz 13 l lote 9 comité 24",
    "sector": "Tablada de Lurín",
    "id": "2185",
    "promoter": "Rossana Elena Marchinares Rojas",
    "lat": "-12.188767",
    "lng": "-76.917758",
    "photo": "https://kc.kobotoolbox.org/media/original?media_file=alvaro_escuelar%2Fattachments%2Fb489648379a248ae9a50b5b25f15d5ca%2Ff9c0cea2-26a8-43dc-9df9-0298cdde3286%2F1000218229-12_32_39.jpg"
  },
  {
    "headName": "Virginia Mosquera Ramos",
    "phone": "977413089",
    "dni": "No brinda",
    "address": "Jr.asamble ma A lite 17 tablada de lurin",
    "sector": "Tablada de Lurín",
    "id": "2189",
    "promoter": "Rossana Elena Marchinares Rojas",
    "lat": "-12.188982",
    "lng": "-76.918011",
    "photo": "https://kc.kobotoolbox.org/media/original?media_file=alvaro_escuelar%2Fattachments%2Fb489648379a248ae9a50b5b25f15d5ca%2Ff8c2db0d-3f8b-4dca-88bd-daa323eacaf9%2F1000218249-12_56_12.jpg"
  },
  {
    "headName": "Mirella xiomara licorera Gallardo",
    "phone": "907678288",
    "dni": "73664569",
    "address": "Mz 14Y lt9 - Tablada de Lurin sector 3",
    "sector": "Tablada de Lurín",
    "id": "2217",
    "promoter": "Fari Eli Marín Trejo",
    "lat": "-12.182508",
    "lng": "-76.92582",
    "photo": "https://kc.kobotoolbox.org/media/original?media_file=alvaro_escuelar%2Fattachments%2Fb489648379a248ae9a50b5b25f15d5ca%2Fbb6ff6a3-693c-45f3-b5c2-8aa737e29251%2F1000151511-10_52_44.jpg"
  },
  {
    "headName": "Luz colina Alarc9n Arebalo",
    "phone": "978917806",
    "dni": "46492520",
    "address": "Mz 13v lt13 - Tablada de Lurin sector 2",
    "sector": "Tablada de Lurín",
    "id": "2219",
    "promoter": "Fari Eli Marín Trejo",
    "lat": "-12.184421",
    "lng": "-76.924831",
    "photo": "https://kc.kobotoolbox.org/media/original?media_file=alvaro_escuelar%2Fattachments%2Fb489648379a248ae9a50b5b25f15d5ca%2F332a8b77-af6c-4cd9-a834-fd0fdbbf3dfb%2F1000151521-11_4_4.jpg"
  },
  {
    "headName": "Brinda semana marca juscca",
    "phone": "991003682",
    "dni": "70776522",
    "address": "Mz 11Q lt15 - Tablada de Lurin sector 2",
    "sector": "Tablada de Lurín",
    "id": "2220",
    "promoter": "Fari Eli Marín Trejo",
    "lat": "-12.186031",
    "lng": "-76.919747",
    "photo": "https://kc.kobotoolbox.org/media/original?media_file=alvaro_escuelar%2Fattachments%2Fb489648379a248ae9a50b5b25f15d5ca%2F7c1faf7b-c38c-4490-ba2d-9711bdd3e618%2F1000151542-11_45_56.jpg"
  },
  {
    "headName": "Calandra lucero atahu Rojas",
    "phone": "920330408",
    "dni": "73876231",
    "address": "Mz c lt 13 A Pasaje Cementos Lima - Tablada de Lurin sector 2",
    "sector": "Tablada de Lurín",
    "id": "2224",
    "promoter": "Fari Eli Marín Trejo",
    "lat": "-12.188231",
    "lng": "-76.917435",
    "photo": "https://kc.kobotoolbox.org/media/original?media_file=alvaro_escuelar%2Fattachments%2Fb489648379a248ae9a50b5b25f15d5ca%2F6f0b2e63-9318-44fe-92c9-5a08e7d048e1%2F1000151561-11_54_5.jpg"
  },
  {
    "headName": "Nelly Rojas Gonzales",
    "phone": "933627197",
    "dni": "No brinda",
    "address": "mzC lt 13 Pasaje Cementos lima - Tablada de Lurin sector 2",
    "sector": "Tablada de Lurín",
    "id": "2226",
    "promoter": "Fari Eli Marín Trejo",
    "lat": "-12.1883",
    "lng": "-76.917293",
    "photo": "https://kc.kobotoolbox.org/media/original?media_file=alvaro_escuelar%2Fattachments%2Fb489648379a248ae9a50b5b25f15d5ca%2Fe50647a0-8d1b-4cd1-8467-0cd68210f715%2F1000151561-11_58_20.jpg"
  },
  {
    "headName": "Richar Choquecahuana Narvaez",
    "phone": "922945560",
    "dni": "40646855",
    "address": "Mz B lt 4 E - AAHH Amistad 8 de Octubre",
    "sector": "Tablada de Lurín",
    "id": "2296",
    "promoter": "Fari Eli Marín Trejo",
    "lat": "-12.179781",
    "lng": "-76.928499",
    "photo": "https://kc.kobotoolbox.org/media/original?media_file=alvaro_escuelar%2Fattachments%2Fb489648379a248ae9a50b5b25f15d5ca%2F653527a0-5ad1-406b-8a3f-1a4dfb3fddc2%2F1000151855-18_40_16.jpg"
  },
  {
    "headName": "Maricruz Cóndor Seancas",
    "phone": "902043521",
    "dni": "45989876",
    "address": "Loz Jazmines mz c lt 1A",
    "sector": "Tablada de Lurín",
    "id": "2297",
    "promoter": "Fari Eli Marín Trejo",
    "lat": "-12.179784",
    "lng": "-76.928217",
    "photo": "https://kc.kobotoolbox.org/media/original?media_file=alvaro_escuelar%2Fattachments%2Fb489648379a248ae9a50b5b25f15d5ca%2Fed19d530-e959-4f03-b092-c15a55621ab2%2F1000151876-18_46_1.jpg"
  },
  {
    "headName": "Jeimy Llactas Condori",
    "phone": "902043521",
    "dni": "70521668",
    "address": "Loz Jazmines Mz C lt 1 B",
    "sector": "Tablada de Lurín",
    "id": "2298",
    "promoter": "Fari Eli Marín Trejo",
    "lat": "-12.179872",
    "lng": "-76.928429",
    "photo": "https://kc.kobotoolbox.org/media/original?media_file=alvaro_escuelar%2Fattachments%2Fb489648379a248ae9a50b5b25f15d5ca%2F880ecdf6-157f-4fd1-b842-3a04b547d1dc%2F1000151877-18_48_35.jpg"
  },
  {
    "headName": "Virgilia seancas Garibay",
    "phone": "902043521",
    "dni": "9405317",
    "address": "Loz Jazmines mz C lt 1",
    "sector": "Tablada de Lurín",
    "id": "2299",
    "promoter": "Fari Eli Marín Trejo",
    "lat": "-12.179911",
    "lng": "-76.928367",
    "photo": "https://kc.kobotoolbox.org/media/original?media_file=alvaro_escuelar%2Fattachments%2Fb489648379a248ae9a50b5b25f15d5ca%2F809364c1-f70d-4b65-8aad-e6f0d0f06488%2F1000151877-18_51_6.jpg"
  },
  {
    "headName": "Lucrecia Felicita Murga",
    "phone": "991834968",
    "dni": "46717947",
    "address": "mz A lt 13 - AAHH Amistad 8 de Octubre",
    "sector": "Tablada de Lurín",
    "id": "2300",
    "promoter": "Fari Eli Marín Trejo",
    "lat": "-12.179536",
    "lng": "-76.928805",
    "photo": "https://kc.kobotoolbox.org/media/original?media_file=alvaro_escuelar%2Fattachments%2Fb489648379a248ae9a50b5b25f15d5ca%2F177b441d-50e0-4c1f-bfdf-b84e61917cd0%2F1000151881-18_57_33.jpg"
  },
  {
    "headName": "Consuelo soledad Mondalgo",
    "phone": "906457310",
    "dni": "63041603",
    "address": "Mz A lt 13 A - AAHH Amistad 8 de Octubre",
    "sector": "Tablada de Lurín",
    "id": "2301",
    "promoter": "Fari Eli Marín Trejo",
    "lat": "-12.179499",
    "lng": "-76.928875",
    "photo": "https://kc.kobotoolbox.org/media/original?media_file=alvaro_escuelar%2Fattachments%2Fb489648379a248ae9a50b5b25f15d5ca%2Fa6151783-4653-4e82-8632-3ce0cee7b479%2F1000151881-19_1_10.jpg"
  },
  {
    "headName": "Blanca Esperanza mondongo Murga",
    "phone": "982100140",
    "dni": "71259800",
    "address": "mz A lt 13 D - AAHH Amistad 8 de Octubre",
    "sector": "Tablada de Lurín",
    "id": "2302",
    "promoter": "RM",
    "lat": "-12.179499",
    "lng": "-76.928852",
    "photo": "https://kc.kobotoolbox.org/media/original?media_file=alvaro_escuelar%2Fattachments%2Fb489648379a248ae9a50b5b25f15d5ca%2F87930c44-207a-4289-b3d2-fccbdec93e82%2F1000151881-19_5_36.jpg"
  },
  {
    "headName": "Erick Brayan Figueredo Alva",
    "phone": "965460850",
    "dni": "71260582",
    "address": "Mz C lt 11 D - AAHH Amistad 8 de Octubre",
    "sector": "Tablada de Lurín",
    "id": "2303",
    "promoter": "RM",
    "lat": "-12.179481",
    "lng": "-76.928893",
    "photo": "https://kc.kobotoolbox.org/media/original?media_file=alvaro_escuelar%2Fattachments%2Fb489648379a248ae9a50b5b25f15d5ca%2F41ea8e21-7af7-49a5-85e0-51bfd5de1bed%2F1000151900-19_11_10.jpg"
  },
  {
    "headName": "Yolibeth Josefina Mondalgo Clemente",
    "phone": "982100140",
    "dni": "71259364",
    "address": "mz Alt 13 E - AAHH Amistad 8 de Octubre",
    "sector": "Tablada de Lurín",
    "id": "2304",
    "promoter": "RM",
    "lat": "-12.179498",
    "lng": "-76.928894",
    "photo": "https://kc.kobotoolbox.org/media/original?media_file=alvaro_escuelar%2Fattachments%2Fb489648379a248ae9a50b5b25f15d5ca%2F1e2c3bb8-5120-40b6-a8a2-a7951291ef6d%2F1000151881-19_20_46.jpg"
  },
  {
    "headName": "Alquiles ipushima ahuanari",
    "phone": "962478155",
    "dni": "44648680",
    "address": "mz S lt 13 F - AAHH Amistad 8 de Octubre",
    "sector": "Tablada de Lurín",
    "id": "2305",
    "promoter": "Rossana Elena Marchinares Rojas",
    "lat": "-12.179493",
    "lng": "-76.928931",
    "photo": "https://kc.kobotoolbox.org/media/original?media_file=alvaro_escuelar%2Fattachments%2Fb489648379a248ae9a50b5b25f15d5ca%2Fc2611c7b-c318-4362-b40f-daeb11dfa4aa%2F1000151881-19_25_34.jpg"
  },
  {
    "headName": "Krystel Picón Salazar",
    "phone": "967 192 196",
    "dni": "No brinda",
    "address": "Mz B lt16 - AAHH Amistad 8 de Octubre",
    "sector": "Tablada de Lurín",
    "id": "2306",
    "promoter": "Fari Eli Marín Trejo",
    "lat": "-12.180087",
    "lng": "-76.928933",
    "photo": "https://kc.kobotoolbox.org/media/original?media_file=alvaro_escuelar%2Fattachments%2Fb489648379a248ae9a50b5b25f15d5ca%2F9e0820f9-fd7f-4ce8-983e-3f19dd15823b%2F1000151934-19_48_38.jpg"
  },
  {
    "headName": "Rosario silverio brito",
    "phone": "931396127",
    "dni": "98539623",
    "address": "mz B lt 18 - AAHH Amistad 8 de Octubre",
    "sector": "Tablada de Lurín",
    "id": "2307",
    "promoter": "Fari Eli Marín Trejo",
    "lat": "-12.179955",
    "lng": "-76.928926",
    "photo": "https://kc.kobotoolbox.org/media/original?media_file=alvaro_escuelar%2Fattachments%2Fb489648379a248ae9a50b5b25f15d5ca%2F4b913c88-34c7-4abf-95da-c411b0726859%2F1000151943-19_56_59.jpg"
  },
  {
    "headName": "Solanch Leon Silverio",
    "phone": "971571227",
    "dni": "No brinda",
    "address": "Mz B lt 18 A - AAHH Amistad 8 de Octubre",
    "sector": "Tablada de Lurín",
    "id": "2308",
    "promoter": "Fari Eli Marín Trejo",
    "lat": "-12.180054",
    "lng": "-76.928942",
    "photo": "https://kc.kobotoolbox.org/media/original?media_file=alvaro_escuelar%2Fattachments%2Fb489648379a248ae9a50b5b25f15d5ca%2F023cbabb-78b2-40e3-904c-134f32079e9d%2F1000151943-19_59_36.jpg"
  },
  {
    "headName": "Gloria minaya Berrocal",
    "phone": "914696727",
    "dni": "No brinda",
    "address": "mz D lt 9 A - AAHH Amistad 8 de Octubre",
    "sector": "Tablada de Lurín",
    "id": "2309",
    "promoter": "Fari Eli Marín Trejo",
    "lat": "-12.180002",
    "lng": "-76.929012",
    "photo": "https://kc.kobotoolbox.org/media/original?media_file=alvaro_escuelar%2Fattachments%2Fb489648379a248ae9a50b5b25f15d5ca%2Ff2269c60-3a1d-4f42-b309-bcd4a4525f25%2F1000151951-20_4_19.jpg"
  },
  {
    "headName": "Elizabeth minaya Berrocal",
    "phone": "977521448",
    "dni": "No brinda",
    "address": "mz Dlt 9 B - AAHH Amistad 8 de Octubre",
    "sector": "Tablada de Lurín",
    "id": "2310",
    "promoter": "Fari Eli Marín Trejo",
    "lat": "-12.180017",
    "lng": "-76.928944",
    "photo": "https://kc.kobotoolbox.org/media/original?media_file=alvaro_escuelar%2Fattachments%2Fb489648379a248ae9a50b5b25f15d5ca%2F449cf494-811e-4b38-9b6d-d03044096165%2F1000151951-20_14_5.jpg"
  },
  {
    "headName": "Baseliza Berrocal",
    "phone": "930 617 519",
    "dni": "No brinda",
    "address": "mz D lt 9C - AAHH Amistad 8 de Octubre",
    "sector": "Tablada de Lurín",
    "id": "2311",
    "promoter": "Fari Eli Marín Trejo",
    "lat": "-12.180035",
    "lng": "-76.928952",
    "photo": "https://kc.kobotoolbox.org/media/original?media_file=alvaro_escuelar%2Fattachments%2Fb489648379a248ae9a50b5b25f15d5ca%2F8742eab1-43d9-463a-a749-62d0e588875a%2F1000151951-20_19_35.jpg"
  },
  {
    "headName": "Joel medina huanca",
    "phone": "910 161 117",
    "dni": "72648881",
    "address": "mz D lt 10 - AAHH Amistad 8 de Octubre",
    "sector": "Tablada de Lurín",
    "id": "2312",
    "promoter": "Fari Eli Marín Trejo",
    "lat": "-12.17997",
    "lng": "-76.928921",
    "photo": "https://kc.kobotoolbox.org/media/original?media_file=alvaro_escuelar%2Fattachments%2Fb489648379a248ae9a50b5b25f15d5ca%2F17c74089-1297-4ade-9f25-6910fd924e6e%2F1000151957-20_22_3.jpg"
  },
  {
    "headName": "Flor Isabel vera",
    "phone": "901 071 623",
    "dni": "No brinda",
    "address": "mz D lt 12 - AAHH Amistad 8 de Octubre",
    "sector": "Tablada de Lurín",
    "id": "2313",
    "promoter": "Fari Eli Marín Trejo",
    "lat": "-12.180061",
    "lng": "-76.92893",
    "photo": "https://kc.kobotoolbox.org/media/original?media_file=alvaro_escuelar%2Fattachments%2Fb489648379a248ae9a50b5b25f15d5ca%2F576e0349-49f9-484c-97d8-6d2c8fb4fac1%2F1000151959-20_25_29.jpg"
  },
  {
    "headName": "Xiomara mayerly Vidal Vera",
    "phone": "928 483 405",
    "dni": "No brinda",
    "address": "mz D lt 12 C - AAHH Amistad 8 de Octubre",
    "sector": "Tablada de Lurín",
    "id": "2314",
    "promoter": "Fari Eli Marín Trejo",
    "lat": "-12.180043",
    "lng": "-76.928925",
    "photo": "https://kc.kobotoolbox.org/media/original?media_file=alvaro_escuelar%2Fattachments%2Fb489648379a248ae9a50b5b25f15d5ca%2Fa8939738-a6fc-4658-9aeb-4be900c812c3%2F1000151959-20_28_9.jpg"
  },
  {
    "headName": "Edilia Romayna Romero",
    "phone": "935328896",
    "dni": "No brinda",
    "address": "mz D lt 8 - AAHH Amistad 8 de Octubre",
    "sector": "Tablada de Lurín",
    "id": "2315",
    "promoter": "Fari Eli Marín Trejo",
    "lat": "-12.179964",
    "lng": "-76.928925",
    "photo": "https://kc.kobotoolbox.org/media/original?media_file=alvaro_escuelar%2Fattachments%2Fb489648379a248ae9a50b5b25f15d5ca%2Faffbd0a8-cd70-4f09-a6a3-d46c9d9a7495%2F1000151950-20_31_32.jpg"
  },
  {
    "headName": "Jessica del rocio Custodio Rojas",
    "phone": "973155225",
    "dni": "9007861",
    "address": "mz B LT20 A - AAHH Amistad 8 de Octubre",
    "sector": "Tablada de Lurín",
    "id": "2316",
    "promoter": "Fari Eli Marín Trejo",
    "lat": "-12.179871",
    "lng": "-76.928907",
    "photo": "https://kc.kobotoolbox.org/media/original?media_file=alvaro_escuelar%2Fattachments%2Fb489648379a248ae9a50b5b25f15d5ca%2F0812a77f-d5c4-4236-8af7-4a1d3fcd9f65%2F1000151970-20_36_28.jpg"
  },
  {
    "headName": "Jazmín jady huillca custodio",
    "phone": "956284053",
    "dni": "8900515",
    "address": "mz B ltb20 B - AAHH Amistad 8 de Octubre",
    "sector": "Tablada de Lurín",
    "id": "2317",
    "promoter": "Fari Eli Marín Trejo",
    "lat": "-12.179878",
    "lng": "-76.92891",
    "photo": "https://kc.kobotoolbox.org/media/original?media_file=alvaro_escuelar%2Fattachments%2Fb489648379a248ae9a50b5b25f15d5ca%2Fa57d7644-fc99-4829-9823-27ea6ce72586%2F1000151970-20_40_57.jpg"
  },
  {
    "headName": "Jose Antonio Custodio Rojas",
    "phone": "927419753",
    "dni": "26380882",
    "address": "mz B lt 20 D - AAHH Amistad 8 de Octubre",
    "sector": "Tablada de Lurín",
    "id": "2318",
    "promoter": "Fari Eli Marín Trejo",
    "lat": "-12.179844",
    "lng": "-76.928902",
    "photo": "https://kc.kobotoolbox.org/media/original?media_file=alvaro_escuelar%2Fattachments%2Fb489648379a248ae9a50b5b25f15d5ca%2Fc0883b46-87ef-499f-90dd-7d0e8d9c3768%2F1000151970-20_44_2.jpg"
  },
  {
    "headName": "Ayme mariño balderrama",
    "phone": "906617011",
    "dni": "70742296",
    "address": "mz B lt 26 - AAHH Amistad 8 de Octubre",
    "sector": "Tablada de Lurín",
    "id": "2319",
    "promoter": "Fari Eli Marín Trejo",
    "lat": "-12.179562",
    "lng": "-76.928783",
    "photo": "https://kc.kobotoolbox.org/media/original?media_file=alvaro_escuelar%2Fattachments%2Fb489648379a248ae9a50b5b25f15d5ca%2F4f0a47f9-007e-423c-aa80-831cfed0b537%2F1000151885-20_53_35.jpg"
  },